{"type": "FeatureCollection", "features": [{"type":"Feature","geometry":{"type":"Point","coordinates":[-71.069679,42.379002]},"properties":{"cartodb_id":559,"id":135558,"street":" ESSEX ST","city":"Boston","state":"MA"}},{"type":"Feature","geometry":{"type":"Point","coordinates":[-71.08248,42.33201]},"properties":{"cartodb_id":1350,"id":136349,"street":" DADE ST","city":"Boston","state":"MA"}},{"type":"Feature","geometry":{"type":"Point","coordinates":[-71.064927,42.359836]},"properties":{"cartodb_id":1568,"id":136567,"street":" JOY ST","city":"Boston","state":"MA"}},{"type":"Feature","geometry":{"type":"Point","coordinates":[-71.04864,42.33628]},"properties":{"cartodb_id":1826,"id":136825,"street":"114 F ST","city":"Boston","state":"MA"}},{"type":"Feature","geometry":{"type":"Point","coordinates":[-71.082336,42.380042]},"properties":{"cartodb_id":2254,"id":137253,"street":"0 WASHINGTON ST","city":"Boston","state":"MA"}},{"type":"Feature","geometry":{"type":"Point","coordinates":[-71.04123,42.33077]},"properties":{"cartodb_id":3501,"id":138500,"street":"206 H ST","city":"Boston","state":"MA"}},{"type":"Feature","geometry":{"type":"Point","coordinates":[-71.16721,42.27491]},"properties":{"cartodb_id":4074,"id":139073,"street":" BAKER ST","city":"Boston","state":"MA"}},{"type":"Feature","geometry":{"type":"Point","coordinates":[-71.159854,42.348744]},"properties":{"cartodb_id":4172,"id":139171,"street":"00 WASHINGTON ST","city":"Boston","state":"MA"}},{"type":"Feature","geometry":{"type":"Point","coordinates":[-71.065192,42.358703]},"properties":{"cartodb_id":6299,"id":141298,"street":"8 JOY ST","city":"Boston","state":"MA"}},{"type":"Feature","geometry":{"type":"Point","coordinates":[-71.04807,42.33252]},"properties":{"cartodb_id":6909,"id":141908,"street":" GATES ST","city":"Boston","state":"MA"}},{"type":"Feature","geometry":{"type":"Point","coordinates":[-71.07434,42.33605]},"properties":{"cartodb_id":964,"id":135963,"street":"35 WORCESTER SQ","city":"Boston","state":"MA"}},{"type":"Feature","geometry":{"type":"Point","coordinates":[-71.087215,42.320164]},"properties":{"cartodb_id":1204,"id":136203,"street":"60 BOWER ST","city":"Boston","state":"MA"}},{"type":"Feature","geometry":{"type":"Point","coordinates":[-71.101238,42.32309]},"properties":{"cartodb_id":4202,"id":139201,"street":"279 CENTRE ST","city":"Boston","state":"MA"}},{"type":"Feature","geometry":{"type":"Point","coordinates":[-71.05641,42.33027]},"properties":{"cartodb_id":4685,"id":139684,"street":"385 DORCHESTER ST","city":"Boston","state":"MA"}},{"type":"Feature","geometry":{"type":"Point","coordinates":[-114.343502,48.245669]},"properties":{"cartodb_id":4807,"id":139806,"street":"34 LOGAN WY","city":"Boston","state":"MA"}},{"type":"Feature","geometry":{"type":"Point","coordinates":[-114.343502,48.245669]},"properties":{"cartodb_id":6117,"id":141116,"street":"34 LOGAN WY","city":"Boston","state":"MA"}},{"type":"Feature","geometry":{"type":"Point","coordinates":[-71.069679,42.379002]},"properties":{"cartodb_id":6358,"id":141357,"street":" ESSEX ST","city":"Boston","state":"MA"}},{"type":"Feature","geometry":{"type":"Point","coordinates":[-71.07847,42.29952]},"properties":{"cartodb_id":6958,"id":141957,"street":"59 RADCLIFFE ST","city":"Boston","state":"MA"}},{"type":"Feature","geometry":{"type":"Point","coordinates":[-71.0769,42.350514]},"properties":{"cartodb_id":1,"id":135000,"street":"587 BOYLSTON ST","city":"Boston","state":"MA"}},{"type":"Feature","geometry":{"type":"Point","coordinates":[-90.591085,30.041607]},"properties":{"cartodb_id":2,"id":135001,"street":"160 W 1ST ST","city":"Boston","state":"MA"}},{"type":"Feature","geometry":{"type":"Point","coordinates":[-77.582659,40.597289]},"properties":{"cartodb_id":3,"id":135002,"street":"287 W 5TH ST","city":"Boston","state":"MA"}},{"type":"Feature","geometry":{"type":"Point","coordinates":[-71.03701,42.37921]},"properties":{"cartodb_id":4,"id":135003,"street":"61 EUTAW ST","city":"Boston","state":"MA"}},{"type":"Feature","geometry":{"type":"Point","coordinates":[-71.081956,42.337023]},"properties":{"cartodb_id":5,"id":135004,"street":"18 DITMUS CT","city":"Boston","state":"MA"}},{"type":"Feature","geometry":{"type":"Point","coordinates":[-71.09124,42.28244]},"properties":{"cartodb_id":6,"id":135005,"street":"37 LESTON ST","city":"Boston","state":"MA"}},{"type":"Feature","geometry":{"type":"Point","coordinates":[-71.06011,42.357778]},"properties":{"cartodb_id":7,"id":135006,"street":"60 SCHOOL ST","city":"Boston","state":"MA"}},{"type":"Feature","geometry":{"type":"Point","coordinates":[-71.14836,42.29541]},"properties":{"cartodb_id":8,"id":135007,"street":" COURTNEY RD","city":"Boston","state":"MA"}},{"type":"Feature","geometry":{"type":"Point","coordinates":[-71.06639,42.338805]},"properties":{"cartodb_id":9,"id":135008,"street":"00 ALBANY ST","city":"Boston","state":"MA"}},{"type":"Feature","geometry":{"type":"Point","coordinates":[-71.0296,42.335951]},"properties":{"cartodb_id":10,"id":135009,"street":"866 E BROADWAY","city":"Boston","state":"MA"}},{"type":"Feature","geometry":{"type":"Point","coordinates":[-77.060671,38.810312]},"properties":{"cartodb_id":11,"id":135010,"street":"00 COMMONWEALTH AV","city":"Boston","state":"MA"}},{"type":"Feature","geometry":{"type":"Point","coordinates":[-71.080425,42.28464]},"properties":{"cartodb_id":12,"id":135011,"street":" NORFOLK ST at ELIZABETH ST","city":"Boston","state":"MA"}},{"type":"Feature","geometry":{"type":"Point","coordinates":[-71.06301,42.28868]},"properties":{"cartodb_id":13,"id":135012,"street":"3 EDWIN ST","city":"Boston","state":"MA"}},{"type":"Feature","geometry":{"type":"Point","coordinates":[-75.98675,40.313766]},"properties":{"cartodb_id":14,"id":135013,"street":" DORCHESTER AV","city":"Boston","state":"MA"}},{"type":"Feature","geometry":{"type":"Point","coordinates":[-75.98675,40.313766]},"properties":{"cartodb_id":15,"id":135014,"street":"1352 DORCHESTER AV","city":"Boston","state":"MA"}},{"type":"Feature","geometry":{"type":"Point","coordinates":[-71.323672,42.636235]},"properties":{"cartodb_id":16,"id":135015,"street":"78 QUEEN ST","city":"Boston","state":"MA"}},{"type":"Feature","geometry":{"type":"Point","coordinates":[-71.05497,42.31644]},"properties":{"cartodb_id":17,"id":135016,"street":"35 SUDAN ST","city":"Boston","state":"MA"}},{"type":"Feature","geometry":{"type":"Point","coordinates":[-71.05497,42.31644]},"properties":{"cartodb_id":18,"id":135017,"street":"35 SUDAN ST","city":"Boston","state":"MA"}},{"type":"Feature","geometry":{"type":"Point","coordinates":[-71.09097,42.28683]},"properties":{"cartodb_id":19,"id":135018,"street":" DEWEY ST at BLUE HILL AV","city":"Boston","state":"MA"}},{"type":"Feature","geometry":{"type":"Point","coordinates":[-71.159854,42.348744]},"properties":{"cartodb_id":20,"id":135019,"street":"00 WASHINGTON ST at COMMONWEAL","city":"Boston","state":"MA"}},{"type":"Feature","geometry":{"type":"Point","coordinates":[-71.0759,42.2947]},"properties":{"cartodb_id":21,"id":135020,"street":"556 PARK ST","city":"Boston","state":"MA"}},{"type":"Feature","geometry":{"type":"Point","coordinates":[-71.451409,42.751335]},"properties":{"cartodb_id":22,"id":135021,"street":"43 BURKE ST","city":"Boston","state":"MA"}},{"type":"Feature","geometry":{"type":"Point","coordinates":[-82.465295,27.962937]},"properties":{"cartodb_id":23,"id":135022,"street":"870 MASSACHUSETTS AV","city":"Boston","state":"MA"}},{"type":"Feature","geometry":{"type":"Point","coordinates":[-71.06377,42.3163]},"properties":{"cartodb_id":24,"id":135023,"street":"45 STOUGHTON ST","city":"Boston","state":"MA"}},{"type":"Feature","geometry":{"type":"Point","coordinates":[-71.059722,42.29041]},"properties":{"cartodb_id":25,"id":135024,"street":" DORCHESTER AV at SHEPTON ST","city":"Boston","state":"MA"}},{"type":"Feature","geometry":{"type":"Point","coordinates":[-112.769807,33.980393]},"properties":{"cartodb_id":26,"id":135025,"street":"94 LOGAN WY","city":"Boston","state":"MA"}},{"type":"Feature","geometry":{"type":"Point","coordinates":[-78.877858,42.904096]},"properties":{"cartodb_id":27,"id":135026,"street":"00 SAVIN HILL AV","city":"Boston","state":"MA"}},{"type":"Feature","geometry":{"type":"Point","coordinates":[-122.114823,37.685489]},"properties":{"cartodb_id":28,"id":135027,"street":"103 HARVARD AV","city":"Boston","state":"MA"}},{"type":"Feature","geometry":{"type":"Point","coordinates":[-122.114823,37.685489]},"properties":{"cartodb_id":29,"id":135028,"street":"00 HARVARD AV at COMMONWEALTH","city":"Boston","state":"MA"}},{"type":"Feature","geometry":{"type":"Point","coordinates":[-71.08324,42.29807]},"properties":{"cartodb_id":30,"id":135029,"street":" HARVARD ST at BICKNELL ST","city":"Boston","state":"MA"}},{"type":"Feature","geometry":{"type":"Point","coordinates":[-104.805989,40.08416]},"properties":{"cartodb_id":31,"id":135030,"street":"444 HARRISON AV","city":"Boston","state":"MA"}},{"type":"Feature","geometry":{"type":"Point","coordinates":[-71.04458,42.28513]},"properties":{"cartodb_id":32,"id":135031,"street":"770 GALLIVAN BL","city":"Boston","state":"MA"}},{"type":"Feature","geometry":{"type":"Point","coordinates":[-71.07917,42.30644]},"properties":{"cartodb_id":33,"id":135032,"street":" NORMANDY ST at GENEVA AV","city":"Boston","state":"MA"}},{"type":"Feature","geometry":{"type":"Point","coordinates":[-71.089523,42.291239]},"properties":{"cartodb_id":34,"id":135033,"street":"973 BLUE HILL AV","city":"Boston","state":"MA"}},{"type":"Feature","geometry":{"type":"Point","coordinates":[-73.260838,42.439999]},"properties":{"cartodb_id":35,"id":135034,"street":"75 BOYLSTON ST","city":"Boston","state":"MA"}},{"type":"Feature","geometry":{"type":"Point","coordinates":[-71.107697,42.334299]},"properties":{"cartodb_id":36,"id":135035,"street":"1 KEMPTON ST","city":"Boston","state":"MA"}},{"type":"Feature","geometry":{"type":"Point","coordinates":[-71.06306,42.355223]},"properties":{"cartodb_id":37,"id":135036,"street":" TREMONT ST","city":"Boston","state":"MA"}},{"type":"Feature","geometry":{"type":"Point","coordinates":[-71.071928,42.273432]},"properties":{"cartodb_id":38,"id":135037,"street":" MORTON ST at NORFOLK ST","city":"Boston","state":"MA"}},{"type":"Feature","geometry":{"type":"Point","coordinates":[-71.086193,42.27675]},"properties":{"cartodb_id":39,"id":135038,"street":" W SELDEN ST at BABSON ST","city":"Boston","state":"MA"}},{"type":"Feature","geometry":{"type":"Point","coordinates":[-71.08427,42.30754]},"properties":{"cartodb_id":40,"id":135039,"street":"515 BLUE HILL AV","city":"Boston","state":"MA"}},{"type":"Feature","geometry":{"type":"Point","coordinates":[-71.09015,42.31707]},"properties":{"cartodb_id":41,"id":135040,"street":"131 HAROLD ST","city":"Boston","state":"MA"}},{"type":"Feature","geometry":{"type":"Point","coordinates":[-71.07866,42.31211]},"properties":{"cartodb_id":42,"id":135041,"street":"30 CRESTON ST","city":"Boston","state":"MA"}},{"type":"Feature","geometry":{"type":"Point","coordinates":[-71.074748,42.353646]},"properties":{"cartodb_id":43,"id":135042,"street":"64 MARLBOROUGH ST","city":"Boston","state":"MA"}},{"type":"Feature","geometry":{"type":"Point","coordinates":[-71.323672,42.636235]},"properties":{"cartodb_id":44,"id":135043,"street":"78 QUEEN ST","city":"Boston","state":"MA"}},{"type":"Feature","geometry":{"type":"Point","coordinates":[-71.050148,42.36327]},"properties":{"cartodb_id":45,"id":135044,"street":"0 STATE ST at ATLANTIC AV","city":"Boston","state":"MA"}},{"type":"Feature","geometry":{"type":"Point","coordinates":[-71.05687,42.3586]},"properties":{"cartodb_id":46,"id":135045,"street":"0 STATE ST","city":"Boston","state":"MA"}},{"type":"Feature","geometry":{"type":"Point","coordinates":[-71.05148,42.30962]},"properties":{"cartodb_id":47,"id":135046,"street":"0 PLAYSTEAD RD","city":"Boston","state":"MA"}},{"type":"Feature","geometry":{"type":"Point","coordinates":[-71.05148,42.30962]},"properties":{"cartodb_id":48,"id":135047,"street":"0 PLAYSTEAD RD","city":"Boston","state":"MA"}},{"type":"Feature","geometry":{"type":"Point","coordinates":[-71.05485,42.31705]},"properties":{"cartodb_id":49,"id":135048,"street":"0 HARBOR VIEW ST at DORCHESTER","city":"Boston","state":"MA"}},{"type":"Feature","geometry":{"type":"Point","coordinates":[-71.0883,42.29767]},"properties":{"cartodb_id":50,"id":135049,"street":" AMERICAN LEGION HY at WALK HI","city":"Boston","state":"MA"}},{"type":"Feature","geometry":{"type":"Point","coordinates":[-82.465295,27.962937]},"properties":{"cartodb_id":51,"id":135050,"street":"870 MASSACHUSETTS AV","city":"Boston","state":"MA"}},{"type":"Feature","geometry":{"type":"Point","coordinates":[-71.06606,42.28914]},"properties":{"cartodb_id":52,"id":135051,"street":"97 WELLES AV","city":"Boston","state":"MA"}},{"type":"Feature","geometry":{"type":"Point","coordinates":[-81.025604,34.944048]},"properties":{"cartodb_id":53,"id":135052,"street":"73 MILTON AV","city":"Boston","state":"MA"}},{"type":"Feature","geometry":{"type":"Point","coordinates":[-71.09097,42.28683]},"properties":{"cartodb_id":54,"id":135053,"street":" MCCLELLAN HY at BLUE HILL AV","city":"Boston","state":"MA"}},{"type":"Feature","geometry":{"type":"Point","coordinates":[-71.06189,42.320677]},"properties":{"cartodb_id":55,"id":135054,"street":"0 OLD COLONY AV at DORCHESTER","city":"Boston","state":"MA"}},{"type":"Feature","geometry":{"type":"Point","coordinates":[-71.07682,42.3083]},"properties":{"cartodb_id":56,"id":135055,"street":"128 DEVON ST","city":"Boston","state":"MA"}},{"type":"Feature","geometry":{"type":"Point","coordinates":[-74.575772,39.967536]},"properties":{"cartodb_id":57,"id":135056,"street":"1542 COLUMBUS AV","city":"Boston","state":"MA"}},{"type":"Feature","geometry":{"type":"Point","coordinates":[-71.0571,42.37797]},"properties":{"cartodb_id":58,"id":135057,"street":" UTICA ST at TUFTS ST","city":"Boston","state":"MA"}},{"type":"Feature","geometry":{"type":"Point","coordinates":[-71.09316,42.2759]},"properties":{"cartodb_id":59,"id":135058,"street":"1412 BLUE HILL AV","city":"Boston","state":"MA"}},{"type":"Feature","geometry":{"type":"Point","coordinates":[-71.07827,42.32917]},"properties":{"cartodb_id":60,"id":135059,"street":"124 EUSTIS ST","city":"Boston","state":"MA"}},{"type":"Feature","geometry":{"type":"Point","coordinates":[-71.032817,42.377773]},"properties":{"cartodb_id":61,"id":135060,"street":"231 SARATOGA ST","city":"Boston","state":"MA"}},{"type":"Feature","geometry":{"type":"Point","coordinates":[-71.082585,42.335001]},"properties":{"cartodb_id":62,"id":135061,"street":"30 HAMMOND ST","city":"Boston","state":"MA"}},{"type":"Feature","geometry":{"type":"Point","coordinates":[-71.554651,43.212753]},"properties":{"cartodb_id":63,"id":135062,"street":"34 COLUMBUS AV","city":"Boston","state":"MA"}},{"type":"Feature","geometry":{"type":"Point","coordinates":[-71.101424,42.332298]},"properties":{"cartodb_id":64,"id":135063,"street":" ST ALPHONSUS ST at ALLEGHANY","city":"Boston","state":"MA"}},{"type":"Feature","geometry":{"type":"Point","coordinates":[-71.06984,42.34669]},"properties":{"cartodb_id":65,"id":135064,"street":"5 APPLETON ST","city":"Boston","state":"MA"}},{"type":"Feature","geometry":{"type":"Point","coordinates":[-71.088131,42.290855]},"properties":{"cartodb_id":66,"id":135065,"street":"240 WESTVIEW ST","city":"Boston","state":"MA"}},{"type":"Feature","geometry":{"type":"Point","coordinates":[-80.072695,42.134352]},"properties":{"cartodb_id":67,"id":135066,"street":"548  E 6TH ST","city":"Boston","state":"MA"}},{"type":"Feature","geometry":{"type":"Point","coordinates":[-71.04888,42.33339]},"properties":{"cartodb_id":68,"id":135067,"street":"0 E 8TH ST at MERCER ST","city":"Boston","state":"MA"}},{"type":"Feature","geometry":{"type":"Point","coordinates":[-71.04888,42.33339]},"properties":{"cartodb_id":69,"id":135068,"street":"0 E 8TH ST at MERCER ST","city":"Boston","state":"MA"}},{"type":"Feature","geometry":{"type":"Point","coordinates":[-71.06787,42.34988]},"properties":{"cartodb_id":70,"id":135069,"street":"0 CHURCH ST at PIEDMONT ST","city":"Boston","state":"MA"}},{"type":"Feature","geometry":{"type":"Point","coordinates":[-77.586842,43.144177]},"properties":{"cartodb_id":71,"id":135070,"street":"261 DARTMOUTH ST","city":"Boston","state":"MA"}},{"type":"Feature","geometry":{"type":"Point","coordinates":[-81.986349,28.036092]},"properties":{"cartodb_id":72,"id":135071,"street":"50 SOUTHERN AV","city":"Boston","state":"MA"}},{"type":"Feature","geometry":{"type":"Point","coordinates":[-81.986349,28.036092]},"properties":{"cartodb_id":73,"id":135072,"street":"50 SOUTHERN AV","city":"Boston","state":"MA"}},{"type":"Feature","geometry":{"type":"Point","coordinates":[-71.068266,42.33227]},"properties":{"cartodb_id":74,"id":135073,"street":"0 SOUTHAMPTON ST at BRADSTON S","city":"Boston","state":"MA"}},{"type":"Feature","geometry":{"type":"Point","coordinates":[-71.07967,42.2999]},"properties":{"cartodb_id":75,"id":135074,"street":"62 GREENWOOD ST","city":"Boston","state":"MA"}},{"type":"Feature","geometry":{"type":"Point","coordinates":[-71.09019,42.31698]},"properties":{"cartodb_id":76,"id":135075,"street":"133 HAROLD ST","city":"Boston","state":"MA"}},{"type":"Feature","geometry":{"type":"Point","coordinates":[-71.06112,42.365164]},"properties":{"cartodb_id":77,"id":135076,"street":"180 CANAL ST","city":"Boston","state":"MA"}},{"type":"Feature","geometry":{"type":"Point","coordinates":[-71.0883,42.29767]},"properties":{"cartodb_id":78,"id":135077,"street":" AMERICAN LEGION HY at ANGELL","city":"Boston","state":"MA"}},{"type":"Feature","geometry":{"type":"Point","coordinates":[-71.075069,42.333988]},"properties":{"cartodb_id":79,"id":135078,"street":"35 NORTHAMPTON ST","city":"Boston","state":"MA"}},{"type":"Feature","geometry":{"type":"Point","coordinates":[-71.07042,42.30371]},"properties":{"cartodb_id":80,"id":135079,"street":"149 BOWDOIN ST","city":"Boston","state":"MA"}},{"type":"Feature","geometry":{"type":"Point","coordinates":[-70.220935,41.6953]},"properties":{"cartodb_id":81,"id":135080,"street":" UNION ST","city":"Boston","state":"MA"}},{"type":"Feature","geometry":{"type":"Point","coordinates":[-71.072694,42.351189]},"properties":{"cartodb_id":82,"id":135081,"street":" BOYLSTON ST","city":"Boston","state":"MA"}},{"type":"Feature","geometry":{"type":"Point","coordinates":[-71.12465,42.28943]},"properties":{"cartodb_id":83,"id":135082,"street":"4110 WASHINGTON ST","city":"Boston","state":"MA"}},{"type":"Feature","geometry":{"type":"Point","coordinates":[-71.068266,42.33227]},"properties":{"cartodb_id":84,"id":135083,"street":"0 SOUTHAMPTON ST at BRADSTON S","city":"Boston","state":"MA"}},{"type":"Feature","geometry":{"type":"Point","coordinates":[-71.08763,42.33401]},"properties":{"cartodb_id":85,"id":135084,"street":"00 RUGGLES ST at RAYNOR CR","city":"Boston","state":"MA"}},{"type":"Feature","geometry":{"type":"Point","coordinates":[-71.09132,42.28226]},"properties":{"cartodb_id":86,"id":135085,"street":"14  WOOLSON ST","city":"Boston","state":"MA"}},{"type":"Feature","geometry":{"type":"Point","coordinates":[-71.07127,42.32161]},"properties":{"cartodb_id":87,"id":135086,"street":" COLUMBIA ST at E COTTAGE ST","city":"Boston","state":"MA"}},{"type":"Feature","geometry":{"type":"Point","coordinates":[-71.05579,42.28574]},"properties":{"cartodb_id":88,"id":135087,"street":"112 BEAUMONT ST","city":"Boston","state":"MA"}},{"type":"Feature","geometry":{"type":"Point","coordinates":[-71.07823,42.32499]},"properties":{"cartodb_id":89,"id":135088,"street":" MORELAND ST at FAIRLAND ST","city":"Boston","state":"MA"}},{"type":"Feature","geometry":{"type":"Point","coordinates":[-71.078,42.32554]},"properties":{"cartodb_id":90,"id":135089,"street":"3  FAIRLAND ST","city":"Boston","state":"MA"}},{"type":"Feature","geometry":{"type":"Point","coordinates":[-71.10136,42.3249]},"properties":{"cartodb_id":91,"id":135090,"street":" HEATH ST at BICKFORD ST","city":"Boston","state":"MA"}},{"type":"Feature","geometry":{"type":"Point","coordinates":[-71.10981,42.33222]},"properties":{"cartodb_id":92,"id":135091,"street":" CALUMET ST at PARKER HILL AV","city":"Boston","state":"MA"}},{"type":"Feature","geometry":{"type":"Point","coordinates":[-71.0726,42.32114]},"properties":{"cartodb_id":93,"id":135092,"street":" BLUE HILL AV at W COTTAGE ST","city":"Boston","state":"MA"}},{"type":"Feature","geometry":{"type":"Point","coordinates":[-71.11163,42.31207]},"properties":{"cartodb_id":94,"id":135093,"street":"49 GREEN ST","city":"Boston","state":"MA"}},{"type":"Feature","geometry":{"type":"Point","coordinates":[-71.072694,42.351189]},"properties":{"cartodb_id":95,"id":135094,"street":"00 BOYLSTON ST","city":"Boston","state":"MA"}},{"type":"Feature","geometry":{"type":"Point","coordinates":[-71.055072,42.318634]},"properties":{"cartodb_id":96,"id":135095,"street":"6 GRANT ST","city":"Boston","state":"MA"}},{"type":"Feature","geometry":{"type":"Point","coordinates":[-71.05742,42.33563]},"properties":{"cartodb_id":97,"id":135096,"street":" DORCHESTER AV at ADAMS ST","city":"Boston","state":"MA"}},{"type":"Feature","geometry":{"type":"Point","coordinates":[-71.12999,42.35341]},"properties":{"cartodb_id":98,"id":135097,"street":" SPRING ST at GARDNER ST","city":"Boston","state":"MA"}},{"type":"Feature","geometry":{"type":"Point","coordinates":[-71.14667,42.28422]},"properties":{"cartodb_id":99,"id":135098,"street":" WASHINGTON ST at BEECH ST","city":"Boston","state":"MA"}},{"type":"Feature","geometry":{"type":"Point","coordinates":[-71.134048,42.35731]},"properties":{"cartodb_id":100,"id":135099,"street":" LINCOLN ST","city":"Boston","state":"MA"}},{"type":"Feature","geometry":{"type":"Point","coordinates":[-71.0638,42.35216]},"properties":{"cartodb_id":101,"id":135100,"street":"40 BOYLSTON ST","city":"Boston","state":"MA"}},{"type":"Feature","geometry":{"type":"Point","coordinates":[-104.805976,40.085558]},"properties":{"cartodb_id":102,"id":135101,"street":"650 HARRISON AV","city":"Boston","state":"MA"}},{"type":"Feature","geometry":{"type":"Point","coordinates":[-71.159854,42.348744]},"properties":{"cartodb_id":103,"id":135102,"street":"00 WASHINGTON ST","city":"Boston","state":"MA"}},{"type":"Feature","geometry":{"type":"Point","coordinates":[-71.09099,42.34247]},"properties":{"cartodb_id":104,"id":135103,"street":"80 FENWAY","city":"Boston","state":"MA"}},{"type":"Feature","geometry":{"type":"Point","coordinates":[-71.08066,42.33649]},"properties":{"cartodb_id":105,"id":135104,"street":"67 LENOX ST","city":"Boston","state":"MA"}},{"type":"Feature","geometry":{"type":"Point","coordinates":[-71.078446,42.29752]},"properties":{"cartodb_id":106,"id":135105,"street":"0 RUPERT ST at NORWELL ST","city":"Boston","state":"MA"}},{"type":"Feature","geometry":{"type":"Point","coordinates":[-71.068275,42.354356]},"properties":{"cartodb_id":107,"id":135106,"street":"0 ST ALPHONSUS ST at CALUMET S","city":"Boston","state":"MA"}},{"type":"Feature","geometry":{"type":"Point","coordinates":[-71.074748,42.353646]},"properties":{"cartodb_id":108,"id":135107,"street":"64 MARLBOROUGH ST","city":"Boston","state":"MA"}},{"type":"Feature","geometry":{"type":"Point","coordinates":[-71.06724,42.3131]},"properties":{"cartodb_id":109,"id":135108,"street":"37 GLENDALE ST","city":"Boston","state":"MA"}},{"type":"Feature","geometry":{"type":"Point","coordinates":[-81.250945,28.8776]},"properties":{"cartodb_id":110,"id":135109,"street":"515 GENEVA AV","city":"Boston","state":"MA"}},{"type":"Feature","geometry":{"type":"Point","coordinates":[-71.07493,42.29138]},"properties":{"cartodb_id":111,"id":135110,"street":" ASPINWALL RD at TALBOT AV","city":"Boston","state":"MA"}},{"type":"Feature","geometry":{"type":"Point","coordinates":[-71.09317,42.33034]},"properties":{"cartodb_id":112,"id":135111,"street":"0 ROXBURY ST","city":"Boston","state":"MA"}},{"type":"Feature","geometry":{"type":"Point","coordinates":[-71.09099,42.34247]},"properties":{"cartodb_id":113,"id":135112,"street":"80 FENWAY","city":"Boston","state":"MA"}},{"type":"Feature","geometry":{"type":"Point","coordinates":[-71.094144,42.346944]},"properties":{"cartodb_id":114,"id":135113,"street":"00 IPSWICH ST","city":"Boston","state":"MA"}},{"type":"Feature","geometry":{"type":"Point","coordinates":[-71.04757,42.3375]},"properties":{"cartodb_id":115,"id":135114,"street":"0 W 3RD ST at D ST","city":"Boston","state":"MA"}},{"type":"Feature","geometry":{"type":"Point","coordinates":[-71.09317,42.33034]},"properties":{"cartodb_id":116,"id":135115,"street":"0 ROXBURY ST","city":"Boston","state":"MA"}},{"type":"Feature","geometry":{"type":"Point","coordinates":[-71.1206,42.2932]},"properties":{"cartodb_id":117,"id":135116,"street":"3968 WASHINGTON ST","city":"Boston","state":"MA"}},{"type":"Feature","geometry":{"type":"Point","coordinates":[-122.272784,37.805397]},"properties":{"cartodb_id":118,"id":135117,"street":"1 CITY HALL PZ","city":"Boston","state":"MA"}},{"type":"Feature","geometry":{"type":"Point","coordinates":[-71.080883,42.327563]},"properties":{"cartodb_id":119,"id":135118,"street":"00 GREENVILLE ST at DUDLEY ST","city":"Boston","state":"MA"}},{"type":"Feature","geometry":{"type":"Point","coordinates":[-71.057813,42.377486]},"properties":{"cartodb_id":120,"id":135119,"street":" BUNKER HILL ST","city":"Boston","state":"MA"}},{"type":"Feature","geometry":{"type":"Point","coordinates":[-71.06522,42.29895]},"properties":{"cartodb_id":121,"id":135120,"street":"91 WALDECK ST","city":"Boston","state":"MA"}},{"type":"Feature","geometry":{"type":"Point","coordinates":[-71.12489,42.28788]},"properties":{"cartodb_id":122,"id":135121,"street":" WASHINGTON ST at FIRTH RD","city":"Boston","state":"MA"}},{"type":"Feature","geometry":{"type":"Point","coordinates":[-75.98675,40.313766]},"properties":{"cartodb_id":123,"id":135122,"street":"1188 DORCHESTER AV","city":"Boston","state":"MA"}},{"type":"Feature","geometry":{"type":"Point","coordinates":[-71.058911,42.366386]},"properties":{"cartodb_id":124,"id":135123,"street":" CAUSEWAY ST","city":"Boston","state":"MA"}},{"type":"Feature","geometry":{"type":"Point","coordinates":[-71.05281,42.28877]},"properties":{"cartodb_id":125,"id":135124,"street":"497 ASHMONT ST","city":"Boston","state":"MA"}},{"type":"Feature","geometry":{"type":"Point","coordinates":[-71.08017,42.35222]},"properties":{"cartodb_id":126,"id":135125,"street":"00 MARLBOROUGH ST","city":"Boston","state":"MA"}},{"type":"Feature","geometry":{"type":"Point","coordinates":[-71.070109,42.348396]},"properties":{"cartodb_id":127,"id":135126,"street":"11 CORTES ST","city":"Boston","state":"MA"}},{"type":"Feature","geometry":{"type":"Point","coordinates":[-71.060704,42.373881]},"properties":{"cartodb_id":128,"id":135127,"street":" COMMON ST","city":"Boston","state":"MA"}},{"type":"Feature","geometry":{"type":"Point","coordinates":[-71.06528,42.2939]},"properties":{"cartodb_id":129,"id":135128,"street":"3 NIXON ST","city":"Boston","state":"MA"}},{"type":"Feature","geometry":{"type":"Point","coordinates":[-86.441458,36.96679]},"properties":{"cartodb_id":130,"id":135129,"street":"30 ROCKINGHAM AV","city":"Boston","state":"MA"}},{"type":"Feature","geometry":{"type":"Point","coordinates":[-71.06189,42.320677]},"properties":{"cartodb_id":131,"id":135130,"street":"0 OLD COLONY AV at DORCHESTER","city":"Boston","state":"MA"}},{"type":"Feature","geometry":{"type":"Point","coordinates":[-71.23053,42.069508]},"properties":{"cartodb_id":132,"id":135131,"street":"00 SULLIVAN WY","city":"Boston","state":"MA"}},{"type":"Feature","geometry":{"type":"Point","coordinates":[-82.465295,27.962937]},"properties":{"cartodb_id":133,"id":135132,"street":"00 MASSACHUSETTS AV","city":"Boston","state":"MA"}},{"type":"Feature","geometry":{"type":"Point","coordinates":[-71.065003,42.352229]},"properties":{"cartodb_id":134,"id":135133,"street":"80 BOYLSTON ST","city":"Boston","state":"MA"}},{"type":"Feature","geometry":{"type":"Point","coordinates":[-71.05203,42.33097]},"properties":{"cartodb_id":135,"id":135134,"street":"0 PATTERSON WY","city":"Boston","state":"MA"}},{"type":"Feature","geometry":{"type":"Point","coordinates":[-71.08133,42.2781]},"properties":{"cartodb_id":136,"id":135135,"street":" WOODBOLE AV at STANDARD ST","city":"Boston","state":"MA"}},{"type":"Feature","geometry":{"type":"Point","coordinates":[-71.06306,42.355223]},"properties":{"cartodb_id":137,"id":135136,"street":" TREMONT ST","city":"Boston","state":"MA"}},{"type":"Feature","geometry":{"type":"Point","coordinates":[-71.07053,42.28244]},"properties":{"cartodb_id":138,"id":135137,"street":" WASHINGTON ST at FULLER ST","city":"Boston","state":"MA"}},{"type":"Feature","geometry":{"type":"Point","coordinates":[-71.05742,42.33563]},"properties":{"cartodb_id":139,"id":135138,"street":" DORCHESTER AV at KIMBALL ST","city":"Boston","state":"MA"}},{"type":"Feature","geometry":{"type":"Point","coordinates":[-71.071928,42.273432]},"properties":{"cartodb_id":140,"id":135139,"street":" MORTON ST at NORFOLK ST","city":"Boston","state":"MA"}},{"type":"Feature","geometry":{"type":"Point","coordinates":[-71.067502,42.349278]},"properties":{"cartodb_id":141,"id":135140,"street":"0 MELROSE ST at CHURCH ST","city":"Boston","state":"MA"}},{"type":"Feature","geometry":{"type":"Point","coordinates":[-71.04512,42.33199]},"properties":{"cartodb_id":142,"id":135141,"street":"63 THOMAS PK","city":"Boston","state":"MA"}},{"type":"Feature","geometry":{"type":"Point","coordinates":[-71.05742,42.33563]},"properties":{"cartodb_id":143,"id":135142,"street":" DORCHESTER AV at VICTORIA ST","city":"Boston","state":"MA"}},{"type":"Feature","geometry":{"type":"Point","coordinates":[-71.065323,42.343623]},"properties":{"cartodb_id":144,"id":135143,"street":"00 E BERKELEY ST","city":"Boston","state":"MA"}},{"type":"Feature","geometry":{"type":"Point","coordinates":[-71.07053,42.28244]},"properties":{"cartodb_id":145,"id":135144,"street":" WASHINGTON ST at FULLER ST","city":"Boston","state":"MA"}},{"type":"Feature","geometry":{"type":"Point","coordinates":[-71.03446,42.37389]},"properties":{"cartodb_id":146,"id":135145,"street":" CHELSEA ST","city":"Boston","state":"MA"}},{"type":"Feature","geometry":{"type":"Point","coordinates":[-71.06313,42.35209]},"properties":{"cartodb_id":147,"id":135146,"street":"2 BOYLSTON ST","city":"Boston","state":"MA"}},{"type":"Feature","geometry":{"type":"Point","coordinates":[-71.14937,42.27162]},"properties":{"cartodb_id":148,"id":135147,"street":"38 MAPLEWOOD ST","city":"Boston","state":"MA"}},{"type":"Feature","geometry":{"type":"Point","coordinates":[-71.052428,42.340683]},"properties":{"cartodb_id":149,"id":135148,"street":"00 SCHOOL ST at WASHINGTON ST","city":"Boston","state":"MA"}},{"type":"Feature","geometry":{"type":"Point","coordinates":[-71.057813,42.377486]},"properties":{"cartodb_id":150,"id":135149,"street":" BUNKER HILL ST","city":"Boston","state":"MA"}},{"type":"Feature","geometry":{"type":"Point","coordinates":[-71.14747,42.34636]},"properties":{"cartodb_id":151,"id":135150,"street":"190 WASHINGTON ST","city":"Boston","state":"MA"}},{"type":"Feature","geometry":{"type":"Point","coordinates":[-71.064113,42.341265]},"properties":{"cartodb_id":152,"id":135151,"street":"00 RANDOLPH ST","city":"Boston","state":"MA"}},{"type":"Feature","geometry":{"type":"Point","coordinates":[-71.072694,42.351189]},"properties":{"cartodb_id":153,"id":135152,"street":"00 BOYLSTON ST","city":"Boston","state":"MA"}},{"type":"Feature","geometry":{"type":"Point","coordinates":[-71.08118,42.33542]},"properties":{"cartodb_id":154,"id":135153,"street":"625 SHAWMUT AV","city":"Boston","state":"MA"}},{"type":"Feature","geometry":{"type":"Point","coordinates":[-71.10315,42.324074]},"properties":{"cartodb_id":155,"id":135154,"street":"301 CENTRE ST","city":"Boston","state":"MA"}},{"type":"Feature","geometry":{"type":"Point","coordinates":[-71.10859,42.31786]},"properties":{"cartodb_id":156,"id":135155,"street":"39 BOYLSTON ST","city":"Boston","state":"MA"}},{"type":"Feature","geometry":{"type":"Point","coordinates":[-71.078834,42.328991]},"properties":{"cartodb_id":157,"id":135156,"street":" DEARBORN ST at DUDLEY ST","city":"Boston","state":"MA"}},{"type":"Feature","geometry":{"type":"Point","coordinates":[-71.083445,42.34874]},"properties":{"cartodb_id":158,"id":135157,"street":"867 BOYLSTON ST","city":"Boston","state":"MA"}},{"type":"Feature","geometry":{"type":"Point","coordinates":[-71.069679,42.379002]},"properties":{"cartodb_id":159,"id":135158,"street":" WASHINGTON ST at ESSEX ST","city":"Boston","state":"MA"}},{"type":"Feature","geometry":{"type":"Point","coordinates":[-71.06306,42.355223]},"properties":{"cartodb_id":160,"id":135159,"street":" TREMONT ST","city":"Boston","state":"MA"}},{"type":"Feature","geometry":{"type":"Point","coordinates":[-71.08554,42.29672]},"properties":{"cartodb_id":161,"id":135160,"street":" ABBOT ST at HARVARD ST","city":"Boston","state":"MA"}},{"type":"Feature","geometry":{"type":"Point","coordinates":[-71.06306,42.355223]},"properties":{"cartodb_id":162,"id":135161,"street":" TREMONT ST","city":"Boston","state":"MA"}},{"type":"Feature","geometry":{"type":"Point","coordinates":[-71.09097,42.28683]},"properties":{"cartodb_id":163,"id":135162,"street":" BLUE HILL AV at TALBOT AV","city":"Boston","state":"MA"}},{"type":"Feature","geometry":{"type":"Point","coordinates":[-91.836522,30.011546]},"properties":{"cartodb_id":164,"id":135163,"street":"1010 HARRISON ST","city":"Boston","state":"MA"}},{"type":"Feature","geometry":{"type":"Point","coordinates":[-80.430705,37.069352]},"properties":{"cartodb_id":165,"id":135164,"street":" SURFACE RD","city":"Boston","state":"MA"}},{"type":"Feature","geometry":{"type":"Point","coordinates":[-71.08013,42.28818]},"properties":{"cartodb_id":166,"id":135165,"street":" LUCERNE ST at WOODROW AV","city":"Boston","state":"MA"}},{"type":"Feature","geometry":{"type":"Point","coordinates":[-71.05717,42.247174]},"properties":{"cartodb_id":167,"id":135166,"street":"125  GERALD RD","city":"Boston","state":"MA"}},{"type":"Feature","geometry":{"type":"Point","coordinates":[-71.159854,42.348744]},"properties":{"cartodb_id":168,"id":135167,"street":" WASHINGTON ST","city":"Boston","state":"MA"}},{"type":"Feature","geometry":{"type":"Point","coordinates":[-71.159854,42.348744]},"properties":{"cartodb_id":169,"id":135168,"street":"00 WASHINGTON ST","city":"Boston","state":"MA"}},{"type":"Feature","geometry":{"type":"Point","coordinates":[-75.98675,40.313766]},"properties":{"cartodb_id":170,"id":135169,"street":"00 DORCHESTER AV","city":"Boston","state":"MA"}},{"type":"Feature","geometry":{"type":"Point","coordinates":[-71.04991,42.33941]},"properties":{"cartodb_id":171,"id":135170,"street":"281 D ST","city":"Boston","state":"MA"}},{"type":"Feature","geometry":{"type":"Point","coordinates":[-71.065323,42.343623]},"properties":{"cartodb_id":172,"id":135171,"street":"00 E BERKELEY ST","city":"Boston","state":"MA"}},{"type":"Feature","geometry":{"type":"Point","coordinates":[-71.072694,42.351189]},"properties":{"cartodb_id":173,"id":135172,"street":" BOYLSTON ST","city":"Boston","state":"MA"}},{"type":"Feature","geometry":{"type":"Point","coordinates":[-71.04773,42.33652]},"properties":{"cartodb_id":174,"id":135173,"street":"423 W BROADWAY","city":"Boston","state":"MA"}},{"type":"Feature","geometry":{"type":"Point","coordinates":[-71.08377,42.32887]},"properties":{"cartodb_id":175,"id":135174,"street":"00 WASHINGTON ST at DUDLEY ST","city":"Boston","state":"MA"}},{"type":"Feature","geometry":{"type":"Point","coordinates":[-71.062691,42.351037]},"properties":{"cartodb_id":176,"id":135175,"street":"702 WASHINGTON ST","city":"Boston","state":"MA"}},{"type":"Feature","geometry":{"type":"Point","coordinates":[-71.081857,42.380422]},"properties":{"cartodb_id":177,"id":135176,"street":" NEW WASHINGTON ST at SOUTH ST","city":"Boston","state":"MA"}},{"type":"Feature","geometry":{"type":"Point","coordinates":[-71.06986,42.29811]},"properties":{"cartodb_id":178,"id":135177,"street":" GENEVA AV at TONAWANDA ST","city":"Boston","state":"MA"}},{"type":"Feature","geometry":{"type":"Point","coordinates":[-71.072694,42.351189]},"properties":{"cartodb_id":179,"id":135178,"street":"00 BOYLSTON ST","city":"Boston","state":"MA"}},{"type":"Feature","geometry":{"type":"Point","coordinates":[-71.536123,43.18368]},"properties":{"cartodb_id":180,"id":135179,"street":"327 WOOD AV","city":"Boston","state":"MA"}},{"type":"Feature","geometry":{"type":"Point","coordinates":[-71.10047,42.32421]},"properties":{"cartodb_id":181,"id":135180,"street":"950 PARKER ST","city":"Boston","state":"MA"}},{"type":"Feature","geometry":{"type":"Point","coordinates":[-71.08094,42.32772]},"properties":{"cartodb_id":182,"id":135181,"street":"15 GREENVILLE ST","city":"Boston","state":"MA"}},{"type":"Feature","geometry":{"type":"Point","coordinates":[-71.06306,42.355223]},"properties":{"cartodb_id":183,"id":135182,"street":" TREMONT ST","city":"Boston","state":"MA"}},{"type":"Feature","geometry":{"type":"Point","coordinates":[-71.09097,42.28683]},"properties":{"cartodb_id":184,"id":135183,"street":" BLUE HILL AV at EDGEWOOD ST","city":"Boston","state":"MA"}},{"type":"Feature","geometry":{"type":"Point","coordinates":[-71.06734,42.30757]},"properties":{"cartodb_id":185,"id":135184,"street":" COLEMAN ST at QUINCY ST","city":"Boston","state":"MA"}},{"type":"Feature","geometry":{"type":"Point","coordinates":[-71.054677,42.360082]},"properties":{"cartodb_id":186,"id":135185,"street":"1 FANEUIL HALL SQ","city":"Boston","state":"MA"}},{"type":"Feature","geometry":{"type":"Point","coordinates":[-71.07053,42.28349]},"properties":{"cartodb_id":187,"id":135186,"street":"12 BAILEY ST","city":"Boston","state":"MA"}},{"type":"Feature","geometry":{"type":"Point","coordinates":[-71.104591,42.309702]},"properties":{"cartodb_id":188,"id":135187,"street":"3347 WASHINGTON ST","city":"Boston","state":"MA"}},{"type":"Feature","geometry":{"type":"Point","coordinates":[-71.075,42.34305]},"properties":{"cartodb_id":189,"id":135188,"street":"00 W CANTON ST","city":"Boston","state":"MA"}},{"type":"Feature","geometry":{"type":"Point","coordinates":[-71.08503,42.296]},"properties":{"cartodb_id":190,"id":135189,"street":"209 HARVARD ST","city":"Boston","state":"MA"}},{"type":"Feature","geometry":{"type":"Point","coordinates":[-71.06639,42.338805]},"properties":{"cartodb_id":191,"id":135190,"street":"00 ALBANY ST","city":"Boston","state":"MA"}},{"type":"Feature","geometry":{"type":"Point","coordinates":[-71.06808,42.34955]},"properties":{"cartodb_id":192,"id":135191,"street":"45 CHURCH ST","city":"Boston","state":"MA"}},{"type":"Feature","geometry":{"type":"Point","coordinates":[-71.063548,42.360901]},"properties":{"cartodb_id":193,"id":135192,"street":"0 WASHINGTON ST at TEMPLE ST","city":"Boston","state":"MA"}},{"type":"Feature","geometry":{"type":"Point","coordinates":[-71.0638,42.35216]},"properties":{"cartodb_id":194,"id":135193,"street":"40 BOYLSTON ST","city":"Boston","state":"MA"}},{"type":"Feature","geometry":{"type":"Point","coordinates":[-71.06469,42.31314]},"properties":{"cartodb_id":195,"id":135194,"street":"76 HANCOCK ST","city":"Boston","state":"MA"}},{"type":"Feature","geometry":{"type":"Point","coordinates":[-71.093161,42.334467]},"properties":{"cartodb_id":196,"id":135195,"street":"68 ANNUNCIATION RD","city":"Boston","state":"MA"}},{"type":"Feature","geometry":{"type":"Point","coordinates":[-71.07842,42.32886]},"properties":{"cartodb_id":197,"id":135196,"street":"131 EUSTIS ST","city":"Boston","state":"MA"}},{"type":"Feature","geometry":{"type":"Point","coordinates":[-71.07549,42.32405]},"properties":{"cartodb_id":198,"id":135197,"street":"30 BLUE HILL AV","city":"Boston","state":"MA"}},{"type":"Feature","geometry":{"type":"Point","coordinates":[-71.083683,42.329082]},"properties":{"cartodb_id":199,"id":135198,"street":"41 WARREN ST","city":"Boston","state":"MA"}},{"type":"Feature","geometry":{"type":"Point","coordinates":[-82.465295,27.962937]},"properties":{"cartodb_id":200,"id":135199,"street":"00 MASSACHUSETTS AV","city":"Boston","state":"MA"}},{"type":"Feature","geometry":{"type":"Point","coordinates":[-71.07127,42.32161]},"properties":{"cartodb_id":201,"id":135200,"street":" DUDLEY ST at E COTTAGE ST","city":"Boston","state":"MA"}},{"type":"Feature","geometry":{"type":"Point","coordinates":[-71.065463,42.350044]},"properties":{"cartodb_id":202,"id":135201,"street":"275 TREMONT ST","city":"Boston","state":"MA"}},{"type":"Feature","geometry":{"type":"Point","coordinates":[-71.04275,42.335264]},"properties":{"cartodb_id":203,"id":135202,"street":"535 E BROADWAY","city":"Boston","state":"MA"}},{"type":"Feature","geometry":{"type":"Point","coordinates":[-71.06708,42.30644]},"properties":{"cartodb_id":204,"id":135203,"street":"248 BOWDOIN ST","city":"Boston","state":"MA"}},{"type":"Feature","geometry":{"type":"Point","coordinates":[-71.05742,42.33563]},"properties":{"cartodb_id":205,"id":135204,"street":"0 DORCHESTER AV at KEMP ST","city":"Boston","state":"MA"}},{"type":"Feature","geometry":{"type":"Point","coordinates":[-71.13072,42.25328]},"properties":{"cartodb_id":206,"id":135205,"street":"14 WINSLOW ST","city":"Boston","state":"MA"}},{"type":"Feature","geometry":{"type":"Point","coordinates":[-71.06789,42.34848]},"properties":{"cartodb_id":207,"id":135206,"street":"10 CHURCH ST","city":"Boston","state":"MA"}},{"type":"Feature","geometry":{"type":"Point","coordinates":[-71.06639,42.338805]},"properties":{"cartodb_id":208,"id":135207,"street":"00 ALBANY ST","city":"Boston","state":"MA"}},{"type":"Feature","geometry":{"type":"Point","coordinates":[-71.118197,42.192329]},"properties":{"cartodb_id":209,"id":135208,"street":"2200 WASHINGTON ST","city":"Boston","state":"MA"}},{"type":"Feature","geometry":{"type":"Point","coordinates":[-71.08182,42.27117]},"properties":{"cartodb_id":210,"id":135209,"street":"260 RIVER ST","city":"Boston","state":"MA"}},{"type":"Feature","geometry":{"type":"Point","coordinates":[-71.06624,42.30567]},"properties":{"cartodb_id":211,"id":135210,"street":"180 HAMILTON ST","city":"Boston","state":"MA"}},{"type":"Feature","geometry":{"type":"Point","coordinates":[-71.084435,42.329365]},"properties":{"cartodb_id":212,"id":135211,"street":"2360 WASHINGTON ST","city":"Boston","state":"MA"}},{"type":"Feature","geometry":{"type":"Point","coordinates":[-71.09097,42.28683]},"properties":{"cartodb_id":213,"id":135212,"street":"0 BLUE HILL AV at WAYNE ST","city":"Boston","state":"MA"}},{"type":"Feature","geometry":{"type":"Point","coordinates":[-71.038866,42.369432]},"properties":{"cartodb_id":214,"id":135213,"street":"00 MAVERICK SQ","city":"Boston","state":"MA"}},{"type":"Feature","geometry":{"type":"Point","coordinates":[-90.66637,42.495587]},"properties":{"cartodb_id":215,"id":135214,"street":"335  W 2ND ST","city":"Boston","state":"MA"}},{"type":"Feature","geometry":{"type":"Point","coordinates":[-71.06084,42.35189]},"properties":{"cartodb_id":216,"id":135215,"street":"0 OXFORD PL","city":"Boston","state":"MA"}},{"type":"Feature","geometry":{"type":"Point","coordinates":[-71.085097,42.336923]},"properties":{"cartodb_id":217,"id":135216,"street":"1015 TREMONT ST","city":"Boston","state":"MA"}},{"type":"Feature","geometry":{"type":"Point","coordinates":[-71.081129,42.335809]},"properties":{"cartodb_id":218,"id":135217,"street":"18 TROTTER CT","city":"Boston","state":"MA"}},{"type":"Feature","geometry":{"type":"Point","coordinates":[-71.060432,42.351484]},"properties":{"cartodb_id":219,"id":135218,"street":"0 OXFORD ST","city":"Boston","state":"MA"}},{"type":"Feature","geometry":{"type":"Point","coordinates":[-75.98675,40.313766]},"properties":{"cartodb_id":220,"id":135219,"street":"1754 DORCHESTER AV","city":"Boston","state":"MA"}},{"type":"Feature","geometry":{"type":"Point","coordinates":[-71.06237,42.30173]},"properties":{"cartodb_id":221,"id":135220,"street":"23  ARCADIA ST","city":"Boston","state":"MA"}},{"type":"Feature","geometry":{"type":"Point","coordinates":[-121.350034,38.020017]},"properties":{"cartodb_id":222,"id":135221,"street":"65 WESTLAND AV","city":"Boston","state":"MA"}},{"type":"Feature","geometry":{"type":"Point","coordinates":[-71.074188,42.341606]},"properties":{"cartodb_id":223,"id":135222,"street":"12 AGUADILLA ST","city":"Boston","state":"MA"}},{"type":"Feature","geometry":{"type":"Point","coordinates":[-71.0789,42.3141]},"properties":{"cartodb_id":224,"id":135223,"street":"310 BLUE HILL AV","city":"Boston","state":"MA"}},{"type":"Feature","geometry":{"type":"Point","coordinates":[-71.072694,42.351189]},"properties":{"cartodb_id":225,"id":135224,"street":" BOYLSTON ST","city":"Boston","state":"MA"}},{"type":"Feature","geometry":{"type":"Point","coordinates":[-71.07398,42.341032]},"properties":{"cartodb_id":226,"id":135225,"street":"00 SAN JUAN ST","city":"Boston","state":"MA"}},{"type":"Feature","geometry":{"type":"Point","coordinates":[-71.05301,42.35869]},"properties":{"cartodb_id":227,"id":135226,"street":"0 CENTRAL ST","city":"Boston","state":"MA"}},{"type":"Feature","geometry":{"type":"Point","coordinates":[-71.069679,42.379002]},"properties":{"cartodb_id":228,"id":135227,"street":" ESSEX ST at WASHINGTON ST","city":"Boston","state":"MA"}},{"type":"Feature","geometry":{"type":"Point","coordinates":[-71.05179,42.32982]},"properties":{"cartodb_id":229,"id":135228,"street":" COLUMBIA RD at WASHINGTON ST","city":"Boston","state":"MA"}},{"type":"Feature","geometry":{"type":"Point","coordinates":[-71.0584,42.30438]},"properties":{"cartodb_id":230,"id":135229,"street":"00 KIMBALL ST","city":"Boston","state":"MA"}},{"type":"Feature","geometry":{"type":"Point","coordinates":[-71.05872,42.30349]},"properties":{"cartodb_id":231,"id":135230,"street":"16 GREENWICH ST","city":"Boston","state":"MA"}},{"type":"Feature","geometry":{"type":"Point","coordinates":[-70.220935,41.6953]},"properties":{"cartodb_id":232,"id":135231,"street":" UNION ST","city":"Boston","state":"MA"}},{"type":"Feature","geometry":{"type":"Point","coordinates":[-70.18937,41.741522]},"properties":{"cartodb_id":233,"id":135232,"street":"868 CUMMINS HY","city":"Boston","state":"MA"}},{"type":"Feature","geometry":{"type":"Point","coordinates":[-71.08548,42.315]},"properties":{"cartodb_id":234,"id":135233,"street":" HUMBOLDT AV at WYOMING ST","city":"Boston","state":"MA"}},{"type":"Feature","geometry":{"type":"Point","coordinates":[-71.08548,42.315]},"properties":{"cartodb_id":235,"id":135234,"street":" HUMBOLDT AV at WYOMING ST","city":"Boston","state":"MA"}},{"type":"Feature","geometry":{"type":"Point","coordinates":[-71.052428,42.340683]},"properties":{"cartodb_id":236,"id":135235,"street":" MARVIN ST at WASHINGTON ST","city":"Boston","state":"MA"}},{"type":"Feature","geometry":{"type":"Point","coordinates":[-82.465295,27.962937]},"properties":{"cartodb_id":237,"id":135236,"street":"00 MASSACHUSETTS AV","city":"Boston","state":"MA"}},{"type":"Feature","geometry":{"type":"Point","coordinates":[-71.05742,42.33563]},"properties":{"cartodb_id":238,"id":135237,"street":"0 DORCHESTER AV at LOCUST ST","city":"Boston","state":"MA"}},{"type":"Feature","geometry":{"type":"Point","coordinates":[-71.063122,42.342783]},"properties":{"cartodb_id":239,"id":135238,"street":"273 E BERKELEY ST","city":"Boston","state":"MA"}},{"type":"Feature","geometry":{"type":"Point","coordinates":[-71.121921,42.293253]},"properties":{"cartodb_id":240,"id":135239,"street":"40 ARCHDALE RD","city":"Boston","state":"MA"}},{"type":"Feature","geometry":{"type":"Point","coordinates":[-71.10859,42.31786]},"properties":{"cartodb_id":241,"id":135240,"street":"39 BOYLSTON ST","city":"Boston","state":"MA"}},{"type":"Feature","geometry":{"type":"Point","coordinates":[-71.05179,42.32982]},"properties":{"cartodb_id":242,"id":135241,"street":"0 COLUMBIA RD","city":"Boston","state":"MA"}},{"type":"Feature","geometry":{"type":"Point","coordinates":[-71.065323,42.343623]},"properties":{"cartodb_id":243,"id":135242,"street":"173 E BERKELEY ST","city":"Boston","state":"MA"}},{"type":"Feature","geometry":{"type":"Point","coordinates":[-71.0638,42.35216]},"properties":{"cartodb_id":244,"id":135243,"street":"40 BOYLSTON ST","city":"Boston","state":"MA"}},{"type":"Feature","geometry":{"type":"Point","coordinates":[-71.065323,42.343623]},"properties":{"cartodb_id":245,"id":135244,"street":"00 E BERKELEY ST","city":"Boston","state":"MA"}},{"type":"Feature","geometry":{"type":"Point","coordinates":[-71.159854,42.348744]},"properties":{"cartodb_id":246,"id":135245,"street":" WASHINGTON ST","city":"Boston","state":"MA"}},{"type":"Feature","geometry":{"type":"Point","coordinates":[-71.06427,42.30927]},"properties":{"cartodb_id":247,"id":135246,"street":"376 BOWDOIN ST","city":"Boston","state":"MA"}},{"type":"Feature","geometry":{"type":"Point","coordinates":[-71.06986,42.30208]},"properties":{"cartodb_id":248,"id":135247,"street":"31 HOLIDAY ST","city":"Boston","state":"MA"}},{"type":"Feature","geometry":{"type":"Point","coordinates":[-71.05888,42.37867]},"properties":{"cartodb_id":249,"id":135248,"street":"122 WALFORD WY","city":"Boston","state":"MA"}},{"type":"Feature","geometry":{"type":"Point","coordinates":[-122.213268,37.788089]},"properties":{"cartodb_id":250,"id":135249,"street":"205 HUMBOLDT AV","city":"Boston","state":"MA"}},{"type":"Feature","geometry":{"type":"Point","coordinates":[-71.06642,42.333584]},"properties":{"cartodb_id":251,"id":135250,"street":"99 TOPEKA ST","city":"Boston","state":"MA"}},{"type":"Feature","geometry":{"type":"Point","coordinates":[-71.08376,42.33057]},"properties":{"cartodb_id":252,"id":135251,"street":"2275 WASHINGTON ST","city":"Boston","state":"MA"}},{"type":"Feature","geometry":{"type":"Point","coordinates":[-71.06111,42.34934]},"properties":{"cartodb_id":253,"id":135252,"street":"0 HARVARD ST at HUDSON ST","city":"Boston","state":"MA"}},{"type":"Feature","geometry":{"type":"Point","coordinates":[-71.07443,42.30204]},"properties":{"cartodb_id":254,"id":135253,"street":"41 BULLARD ST","city":"Boston","state":"MA"}},{"type":"Feature","geometry":{"type":"Point","coordinates":[-122.032874,37.610386]},"properties":{"cartodb_id":255,"id":135254,"street":"252 GENEVA AV","city":"Boston","state":"MA"}},{"type":"Feature","geometry":{"type":"Point","coordinates":[-71.07668,42.31378]},"properties":{"cartodb_id":256,"id":135255,"street":"144 QUINCY ST","city":"Boston","state":"MA"}},{"type":"Feature","geometry":{"type":"Point","coordinates":[-122.260764,37.816159]},"properties":{"cartodb_id":257,"id":135256,"street":"101 FAIRMOUNT AV","city":"Boston","state":"MA"}},{"type":"Feature","geometry":{"type":"Point","coordinates":[-75.98675,40.313766]},"properties":{"cartodb_id":258,"id":135257,"street":"1019 DORCHESTER AV","city":"Boston","state":"MA"}},{"type":"Feature","geometry":{"type":"Point","coordinates":[-71.159854,42.348744]},"properties":{"cartodb_id":259,"id":135258,"street":"00 WASHINGTON ST","city":"Boston","state":"MA"}},{"type":"Feature","geometry":{"type":"Point","coordinates":[-81.954486,28.051852]},"properties":{"cartodb_id":260,"id":135259,"street":"820 MASSACHUSETTS AV","city":"Boston","state":"MA"}},{"type":"Feature","geometry":{"type":"Point","coordinates":[-73.260838,42.439999]},"properties":{"cartodb_id":261,"id":135260,"street":"75 BOYLSTON ST","city":"Boston","state":"MA"}},{"type":"Feature","geometry":{"type":"Point","coordinates":[-71.06389,42.32831]},"properties":{"cartodb_id":262,"id":135261,"street":"5 ALLSTATE RD","city":"Boston","state":"MA"}},{"type":"Feature","geometry":{"type":"Point","coordinates":[-71.13397,42.36143]},"properties":{"cartodb_id":263,"id":135262,"street":"0 W 4TH ST at FRONTAGE RD","city":"Boston","state":"MA"}},{"type":"Feature","geometry":{"type":"Point","coordinates":[-71.04354,42.33981]},"properties":{"cartodb_id":264,"id":135263,"street":"0 SUMMER ST at HIGH ST","city":"Boston","state":"MA"}},{"type":"Feature","geometry":{"type":"Point","coordinates":[-71.081174,42.30918]},"properties":{"cartodb_id":265,"id":135264,"street":"460 BLUE HILL AV","city":"Boston","state":"MA"}},{"type":"Feature","geometry":{"type":"Point","coordinates":[-71.08377,42.32887]},"properties":{"cartodb_id":266,"id":135265,"street":" DUDLEY ST at WASHINGTON ST","city":"Boston","state":"MA"}},{"type":"Feature","geometry":{"type":"Point","coordinates":[-71.12156,42.28959]},"properties":{"cartodb_id":267,"id":135266,"street":" WASHINGTON ST at GRANFIELD AV","city":"Boston","state":"MA"}},{"type":"Feature","geometry":{"type":"Point","coordinates":[-71.10014,42.343619]},"properties":{"cartodb_id":268,"id":135267,"street":"33 KILMARNOCK ST","city":"Boston","state":"MA"}},{"type":"Feature","geometry":{"type":"Point","coordinates":[-71.114026,42.381151]},"properties":{"cartodb_id":269,"id":135268,"street":"67 HAMMOND ST","city":"Boston","state":"MA"}},{"type":"Feature","geometry":{"type":"Point","coordinates":[-75.98675,40.313766]},"properties":{"cartodb_id":270,"id":135269,"street":"1411 DORCHESTER AV","city":"Boston","state":"MA"}},{"type":"Feature","geometry":{"type":"Point","coordinates":[-71.103704,42.309376]},"properties":{"cartodb_id":271,"id":135270,"street":" GLEN RD","city":"Boston","state":"MA"}},{"type":"Feature","geometry":{"type":"Point","coordinates":[-71.06651,42.30107]},"properties":{"cartodb_id":272,"id":135271,"street":"153  WESTVILLE ST","city":"Boston","state":"MA"}},{"type":"Feature","geometry":{"type":"Point","coordinates":[-71.0927,42.3346]},"properties":{"cartodb_id":273,"id":135272,"street":"58 ANNUNCIATION RD","city":"Boston","state":"MA"}},{"type":"Feature","geometry":{"type":"Point","coordinates":[-75.98675,40.313766]},"properties":{"cartodb_id":274,"id":135273,"street":"1089  DORCHESTER AV","city":"Boston","state":"MA"}},{"type":"Feature","geometry":{"type":"Point","coordinates":[-71.05598,42.3295]},"properties":{"cartodb_id":275,"id":135274,"street":"24 PREBLE ST","city":"Boston","state":"MA"}},{"type":"Feature","geometry":{"type":"Point","coordinates":[-71.06503,42.30893]},"properties":{"cartodb_id":276,"id":135275,"street":"6 COLEMAN ST","city":"Boston","state":"MA"}},{"type":"Feature","geometry":{"type":"Point","coordinates":[-71.09099,42.34247]},"properties":{"cartodb_id":277,"id":135276,"street":"80 FENWAY","city":"Boston","state":"MA"}},{"type":"Feature","geometry":{"type":"Point","coordinates":[-71.072694,42.351189]},"properties":{"cartodb_id":278,"id":135277,"street":"00 BOYLSTON ST","city":"Boston","state":"MA"}},{"type":"Feature","geometry":{"type":"Point","coordinates":[-71.10315,42.324074]},"properties":{"cartodb_id":279,"id":135278,"street":"301 CENTRE ST","city":"Boston","state":"MA"}},{"type":"Feature","geometry":{"type":"Point","coordinates":[-71.1139,42.30289]},"properties":{"cartodb_id":280,"id":135279,"street":" ANSON ST","city":"Boston","state":"MA"}},{"type":"Feature","geometry":{"type":"Point","coordinates":[-70.989223,42.468112]},"properties":{"cartodb_id":281,"id":135280,"street":"110 OCALLAGHAN WY","city":"Boston","state":"MA"}},{"type":"Feature","geometry":{"type":"Point","coordinates":[-71.0726,42.32114]},"properties":{"cartodb_id":282,"id":135281,"street":" W COTTAGE ST at DUDLEY ST","city":"Boston","state":"MA"}},{"type":"Feature","geometry":{"type":"Point","coordinates":[-71.12166,42.28443]},"properties":{"cartodb_id":283,"id":135282,"street":" PROSPECT AV at BROWN AV","city":"Boston","state":"MA"}},{"type":"Feature","geometry":{"type":"Point","coordinates":[-71.052428,42.340683]},"properties":{"cartodb_id":284,"id":135283,"street":" SCHOOL ST at WASHINGTON ST","city":"Boston","state":"MA"}},{"type":"Feature","geometry":{"type":"Point","coordinates":[-71.058683,42.366207]},"properties":{"cartodb_id":285,"id":135284,"street":" N WASHINGTON ST","city":"Boston","state":"MA"}},{"type":"Feature","geometry":{"type":"Point","coordinates":[-71.158653,42.296184]},"properties":{"cartodb_id":286,"id":135285,"street":"291 INDEPENDENCE DR","city":"Boston","state":"MA"}},{"type":"Feature","geometry":{"type":"Point","coordinates":[-77.536873,36.691605]},"properties":{"cartodb_id":287,"id":135286,"street":"202 SOUTHAMPTON ST","city":"Boston","state":"MA"}},{"type":"Feature","geometry":{"type":"Point","coordinates":[-71.432498,42.986517]},"properties":{"cartodb_id":288,"id":135287,"street":"316 HUNTINGTON AV","city":"Boston","state":"MA"}},{"type":"Feature","geometry":{"type":"Point","coordinates":[-71.149339,42.287013]},"properties":{"cartodb_id":289,"id":135288,"street":"1716 CENTRE ST","city":"Boston","state":"MA"}},{"type":"Feature","geometry":{"type":"Point","coordinates":[-71.05342,42.28927]},"properties":{"cartodb_id":290,"id":135289,"street":"39 WESTGLOW ST","city":"Boston","state":"MA"}},{"type":"Feature","geometry":{"type":"Point","coordinates":[-71.07274,42.290596]},"properties":{"cartodb_id":291,"id":135290,"street":" WASHINGTON ST at SOUTHERN AV","city":"Boston","state":"MA"}},{"type":"Feature","geometry":{"type":"Point","coordinates":[-71.035673,42.336715]},"properties":{"cartodb_id":292,"id":135291,"street":"0 L ST at E BROADWAY","city":"Boston","state":"MA"}},{"type":"Feature","geometry":{"type":"Point","coordinates":[-71.01878,42.412644]},"properties":{"cartodb_id":293,"id":135292,"street":"29 b W DEDHAM ST","city":"Boston","state":"MA"}},{"type":"Feature","geometry":{"type":"Point","coordinates":[-71.08377,42.32887]},"properties":{"cartodb_id":294,"id":135293,"street":" DUDLEY ST at COLUMBIA RD","city":"Boston","state":"MA"}},{"type":"Feature","geometry":{"type":"Point","coordinates":[-71.091418,42.312563]},"properties":{"cartodb_id":295,"id":135294,"street":"68 HOMESTEAD ST","city":"Boston","state":"MA"}},{"type":"Feature","geometry":{"type":"Point","coordinates":[-124.091453,40.880767]},"properties":{"cartodb_id":296,"id":135295,"street":"0 WESTERN AV","city":"Boston","state":"MA"}},{"type":"Feature","geometry":{"type":"Point","coordinates":[-71.11789,42.2957]},"properties":{"cartodb_id":297,"id":135296,"street":"3880 WASHINGTON ST","city":"Boston","state":"MA"}},{"type":"Feature","geometry":{"type":"Point","coordinates":[-71.07142,42.30818]},"properties":{"cartodb_id":298,"id":135297,"street":"0 RICHFIELD ST at COLUMBIA RD","city":"Boston","state":"MA"}},{"type":"Feature","geometry":{"type":"Point","coordinates":[-71.05027,42.30978]},"properties":{"cartodb_id":299,"id":135298,"street":"00 CASPIAN WY","city":"Boston","state":"MA"}},{"type":"Feature","geometry":{"type":"Point","coordinates":[-71.06888,42.35131]},"properties":{"cartodb_id":300,"id":135299,"street":" PARK PLAZA","city":"Boston","state":"MA"}},{"type":"Feature","geometry":{"type":"Point","coordinates":[-71.08621,42.3368]},"properties":{"cartodb_id":301,"id":135300,"street":"00 CUNARD ST","city":"Boston","state":"MA"}},{"type":"Feature","geometry":{"type":"Point","coordinates":[-71.10189,42.27461]},"properties":{"cartodb_id":302,"id":135301,"street":" FAVRE ST at MESSINGER ST","city":"Boston","state":"MA"}},{"type":"Feature","geometry":{"type":"Point","coordinates":[-71.082493,42.328337]},"properties":{"cartodb_id":303,"id":135302,"street":"165 DUDLEY ST","city":"Boston","state":"MA"}},{"type":"Feature","geometry":{"type":"Point","coordinates":[-71.156397,42.349396]},"properties":{"cartodb_id":304,"id":135303,"street":"427 WASHINGTON ST","city":"Boston","state":"MA"}},{"type":"Feature","geometry":{"type":"Point","coordinates":[-71.08173,42.30577]},"properties":{"cartodb_id":305,"id":135304,"street":"47 SUPPLE RD","city":"Boston","state":"MA"}},{"type":"Feature","geometry":{"type":"Point","coordinates":[-71.08523,42.28936]},"properties":{"cartodb_id":306,"id":135305,"street":"63 AMES ST","city":"Boston","state":"MA"}},{"type":"Feature","geometry":{"type":"Point","coordinates":[-71.05742,42.33563]},"properties":{"cartodb_id":307,"id":135306,"street":"0 LOTUS ST at DORCHESTER AV","city":"Boston","state":"MA"}},{"type":"Feature","geometry":{"type":"Point","coordinates":[-71.048579,42.337087]},"properties":{"cartodb_id":308,"id":135307,"street":"0 W BROADWAY","city":"Boston","state":"MA"}},{"type":"Feature","geometry":{"type":"Point","coordinates":[-81.029418,34.934465]},"properties":{"cartodb_id":309,"id":135308,"street":" UNION AV","city":"Boston","state":"MA"}},{"type":"Feature","geometry":{"type":"Point","coordinates":[-71.140621,42.168417]},"properties":{"cartodb_id":310,"id":135309,"street":"1183 WASHINGTON ST","city":"Boston","state":"MA"}},{"type":"Feature","geometry":{"type":"Point","coordinates":[-71.06129,42.32729]},"properties":{"cartodb_id":311,"id":135310,"street":"0 ALLSTATE RD","city":"Boston","state":"MA"}},{"type":"Feature","geometry":{"type":"Point","coordinates":[-71.09628,42.28172]},"properties":{"cartodb_id":312,"id":135311,"street":"78 WELLINGTON HILL","city":"Boston","state":"MA"}},{"type":"Feature","geometry":{"type":"Point","coordinates":[-71.05872,42.30349]},"properties":{"cartodb_id":313,"id":135312,"street":"16 GREENWICH ST","city":"Boston","state":"MA"}},{"type":"Feature","geometry":{"type":"Point","coordinates":[-71.07411,42.34648]},"properties":{"cartodb_id":314,"id":135313,"street":" TREMONT ST at COLUMBUS AV","city":"Boston","state":"MA"}},{"type":"Feature","geometry":{"type":"Point","coordinates":[-71.07755,42.31173]},"properties":{"cartodb_id":315,"id":135314,"street":" WASHINGTON ST at NORMANDY ST","city":"Boston","state":"MA"}},{"type":"Feature","geometry":{"type":"Point","coordinates":[-71.084832,42.306813]},"properties":{"cartodb_id":316,"id":135315,"street":"6 WAYNE ST","city":"Boston","state":"MA"}},{"type":"Feature","geometry":{"type":"Point","coordinates":[-71.05621,42.37852]},"properties":{"cartodb_id":317,"id":135316,"street":" WALFORD WY at POLK ST","city":"Boston","state":"MA"}},{"type":"Feature","geometry":{"type":"Point","coordinates":[-71.07494,42.28721]},"properties":{"cartodb_id":318,"id":135317,"street":"40 WENTWORTH ST","city":"Boston","state":"MA"}},{"type":"Feature","geometry":{"type":"Point","coordinates":[-71.0514,42.30177]},"properties":{"cartodb_id":319,"id":135318,"street":" FREEPORT ST at GREENWICH ST","city":"Boston","state":"MA"}},{"type":"Feature","geometry":{"type":"Point","coordinates":[-76.516075,43.452588]},"properties":{"cartodb_id":320,"id":135319,"street":"177 W 7TH ST","city":"Boston","state":"MA"}},{"type":"Feature","geometry":{"type":"Point","coordinates":[-71.071076,42.289303]},"properties":{"cartodb_id":321,"id":135320,"street":"640 WASHINGTON ST","city":"Boston","state":"MA"}},{"type":"Feature","geometry":{"type":"Point","coordinates":[-71.16508,42.28898]},"properties":{"cartodb_id":322,"id":135321,"street":" ADDINGTON RD","city":"Boston","state":"MA"}},{"type":"Feature","geometry":{"type":"Point","coordinates":[-71.138096,42.319251]},"properties":{"cartodb_id":323,"id":135322,"street":"300 DUDLEY ST","city":"Boston","state":"MA"}},{"type":"Feature","geometry":{"type":"Point","coordinates":[-71.09097,42.28683]},"properties":{"cartodb_id":324,"id":135323,"street":"0 BLUE HILL AV at COLUMBIA RD","city":"Boston","state":"MA"}},{"type":"Feature","geometry":{"type":"Point","coordinates":[-71.062691,42.351037]},"properties":{"cartodb_id":325,"id":135324,"street":"702 WASHINGTON ST","city":"Boston","state":"MA"}},{"type":"Feature","geometry":{"type":"Point","coordinates":[-71.081109,42.339248]},"properties":{"cartodb_id":326,"id":135325,"street":"785 TREMONT ST","city":"Boston","state":"MA"}},{"type":"Feature","geometry":{"type":"Point","coordinates":[-71.08127,42.32927]},"properties":{"cartodb_id":327,"id":135326,"street":"0 ZEIGLER ST","city":"Boston","state":"MA"}},{"type":"Feature","geometry":{"type":"Point","coordinates":[-71.06275,42.35889]},"properties":{"cartodb_id":328,"id":135327,"street":" WASHINGTON ST at BOWDOIN ST","city":"Boston","state":"MA"}},{"type":"Feature","geometry":{"type":"Point","coordinates":[-71.08232,42.31062]},"properties":{"cartodb_id":329,"id":135328,"street":"10 SUNDERLAND ST","city":"Boston","state":"MA"}},{"type":"Feature","geometry":{"type":"Point","coordinates":[-71.0777,42.30257]},"properties":{"cartodb_id":330,"id":135329,"street":"210 WASHINGTON ST","city":"Boston","state":"MA"}},{"type":"Feature","geometry":{"type":"Point","coordinates":[-71.147782,41.68672]},"properties":{"cartodb_id":331,"id":135330,"street":"661 WARREN ST","city":"Boston","state":"MA"}},{"type":"Feature","geometry":{"type":"Point","coordinates":[-71.06554,42.3089]},"properties":{"cartodb_id":332,"id":135331,"street":"15 COLEMAN ST","city":"Boston","state":"MA"}},{"type":"Feature","geometry":{"type":"Point","coordinates":[-71.132479,42.329202]},"properties":{"cartodb_id":333,"id":135332,"street":"497 BOYLSTON ST","city":"Boston","state":"MA"}},{"type":"Feature","geometry":{"type":"Point","coordinates":[-71.08377,42.32887]},"properties":{"cartodb_id":334,"id":135333,"street":"144 DUDLEY ST","city":"Boston","state":"MA"}},{"type":"Feature","geometry":{"type":"Point","coordinates":[-71.10981,42.33222]},"properties":{"cartodb_id":335,"id":135334,"street":" PARKER ST at PARKER HILL AV","city":"Boston","state":"MA"}},{"type":"Feature","geometry":{"type":"Point","coordinates":[-71.061725,42.356165]},"properties":{"cartodb_id":336,"id":135335,"street":"0 WASHINGTON ST at WINTER ST","city":"Boston","state":"MA"}},{"type":"Feature","geometry":{"type":"Point","coordinates":[-71.07166,42.30569]},"properties":{"cartodb_id":337,"id":135336,"street":"59 OLNEY ST","city":"Boston","state":"MA"}},{"type":"Feature","geometry":{"type":"Point","coordinates":[-71.05744,42.3531]},"properties":{"cartodb_id":338,"id":135337,"street":"125 SUMMER ST","city":"Boston","state":"MA"}},{"type":"Feature","geometry":{"type":"Point","coordinates":[-71.06563,42.30024]},"properties":{"cartodb_id":339,"id":135338,"street":" GENEVA AV at JOSEPHINE ST","city":"Boston","state":"MA"}},{"type":"Feature","geometry":{"type":"Point","coordinates":[-71.0939,42.28036]},"properties":{"cartodb_id":340,"id":135339,"street":"16 ORMOND ST","city":"Boston","state":"MA"}},{"type":"Feature","geometry":{"type":"Point","coordinates":[-71.06459,42.37502]},"properties":{"cartodb_id":341,"id":135340,"street":" MAIN ST at AUSTIN ST","city":"Boston","state":"MA"}},{"type":"Feature","geometry":{"type":"Point","coordinates":[-104.805976,40.085558]},"properties":{"cartodb_id":342,"id":135341,"street":" HARRISON AV","city":"Boston","state":"MA"}},{"type":"Feature","geometry":{"type":"Point","coordinates":[-71.078908,42.383715]},"properties":{"cartodb_id":343,"id":135342,"street":"0 PARKER ST at STATION ST","city":"Boston","state":"MA"}},{"type":"Feature","geometry":{"type":"Point","coordinates":[-71.0927,42.3346]},"properties":{"cartodb_id":344,"id":135343,"street":"58 ANNUNCIATION RD","city":"Boston","state":"MA"}},{"type":"Feature","geometry":{"type":"Point","coordinates":[-71.064843,42.299204]},"properties":{"cartodb_id":345,"id":135344,"street":"101 WALDECK ST","city":"Boston","state":"MA"}},{"type":"Feature","geometry":{"type":"Point","coordinates":[-71.06275,42.35889]},"properties":{"cartodb_id":346,"id":135345,"street":" QUINCY ST at BOWDOIN ST","city":"Boston","state":"MA"}},{"type":"Feature","geometry":{"type":"Point","coordinates":[-71.05684,42.29687]},"properties":{"cartodb_id":347,"id":135346,"street":"367 ADAMS ST","city":"Boston","state":"MA"}},{"type":"Feature","geometry":{"type":"Point","coordinates":[-71.15341,42.28735]},"properties":{"cartodb_id":348,"id":135347,"street":"1811 CENTRE ST","city":"Boston","state":"MA"}},{"type":"Feature","geometry":{"type":"Point","coordinates":[-71.07123,42.2835]},"properties":{"cartodb_id":349,"id":135348,"street":"800 WASHINGTON ST","city":"Boston","state":"MA"}},{"type":"Feature","geometry":{"type":"Point","coordinates":[-71.06007,42.35156]},"properties":{"cartodb_id":350,"id":135349,"street":" PING ON ST","city":"Boston","state":"MA"}},{"type":"Feature","geometry":{"type":"Point","coordinates":[-78.877858,42.904096]},"properties":{"cartodb_id":351,"id":135350,"street":"00 SHAWMUT AV","city":"Boston","state":"MA"}},{"type":"Feature","geometry":{"type":"Point","coordinates":[-71.09526,42.344491]},"properties":{"cartodb_id":352,"id":135351,"street":"15 PARK DR","city":"Boston","state":"MA"}},{"type":"Feature","geometry":{"type":"Point","coordinates":[-71.06328,42.32477]},"properties":{"cartodb_id":353,"id":135352,"street":" FIELDS CORNER","city":"Boston","state":"MA"}},{"type":"Feature","geometry":{"type":"Point","coordinates":[-71.085097,42.336923]},"properties":{"cartodb_id":354,"id":135353,"street":"1015 TREMONT ST","city":"Boston","state":"MA"}},{"type":"Feature","geometry":{"type":"Point","coordinates":[-71.08173,42.30577]},"properties":{"cartodb_id":355,"id":135354,"street":" SUPPLE RD at BLUE HILL AV","city":"Boston","state":"MA"}},{"type":"Feature","geometry":{"type":"Point","coordinates":[-71.09097,42.28683]},"properties":{"cartodb_id":356,"id":135355,"street":"0 BLUE HILL AV at LAGRANGE PL","city":"Boston","state":"MA"}},{"type":"Feature","geometry":{"type":"Point","coordinates":[-71.052428,42.340683]},"properties":{"cartodb_id":357,"id":135356,"street":"0 WASHINGTON ST at WATER ST","city":"Boston","state":"MA"}},{"type":"Feature","geometry":{"type":"Point","coordinates":[-70.689077,42.040801]},"properties":{"cartodb_id":358,"id":135357,"street":"1000 TREMONT ST","city":"Boston","state":"MA"}},{"type":"Feature","geometry":{"type":"Point","coordinates":[-71.06403,42.35315]},"properties":{"cartodb_id":359,"id":135358,"street":"175 TREMONT ST","city":"Boston","state":"MA"}},{"type":"Feature","geometry":{"type":"Point","coordinates":[-74.575772,39.967536]},"properties":{"cartodb_id":360,"id":135359,"street":"00 COLUMBUS AV","city":"Boston","state":"MA"}},{"type":"Feature","geometry":{"type":"Point","coordinates":[-71.062852,42.353458]},"properties":{"cartodb_id":361,"id":135360,"street":" AVERY ST at WASHINGTON ST","city":"Boston","state":"MA"}},{"type":"Feature","geometry":{"type":"Point","coordinates":[-71.08296,42.33109]},"properties":{"cartodb_id":362,"id":135361,"street":"2201 WASHINGTON ST","city":"Boston","state":"MA"}},{"type":"Feature","geometry":{"type":"Point","coordinates":[-71.038995,42.377652]},"properties":{"cartodb_id":363,"id":135362,"street":"319 MERIDIAN ST","city":"Boston","state":"MA"}},{"type":"Feature","geometry":{"type":"Point","coordinates":[-71.06275,42.35889]},"properties":{"cartodb_id":364,"id":135363,"street":" BOWDOIN ST at WASHINGTON ST","city":"Boston","state":"MA"}},{"type":"Feature","geometry":{"type":"Point","coordinates":[-71.05834,42.31593]},"properties":{"cartodb_id":365,"id":135364,"street":" VICTORIA ST at PLEASANT ST","city":"Boston","state":"MA"}},{"type":"Feature","geometry":{"type":"Point","coordinates":[-71.063122,42.342783]},"properties":{"cartodb_id":366,"id":135365,"street":"273 E BERKELEY ST","city":"Boston","state":"MA"}},{"type":"Feature","geometry":{"type":"Point","coordinates":[-71.05157,42.29476]},"properties":{"cartodb_id":367,"id":135366,"street":"47 HOUGHTON ST","city":"Boston","state":"MA"}},{"type":"Feature","geometry":{"type":"Point","coordinates":[-71.09886,42.31546]},"properties":{"cartodb_id":368,"id":135367,"street":"3091 WASHINGTON ST","city":"Boston","state":"MA"}},{"type":"Feature","geometry":{"type":"Point","coordinates":[-71.09653,42.32516]},"properties":{"cartodb_id":369,"id":135368,"street":"0 MARCELLA ST","city":"Boston","state":"MA"}},{"type":"Feature","geometry":{"type":"Point","coordinates":[-104.805976,40.085558]},"properties":{"cartodb_id":370,"id":135369,"street":"00 HARRISON AV","city":"Boston","state":"MA"}},{"type":"Feature","geometry":{"type":"Point","coordinates":[-71.09654,42.33231]},"properties":{"cartodb_id":371,"id":135370,"street":"680 PARKER ST","city":"Boston","state":"MA"}},{"type":"Feature","geometry":{"type":"Point","coordinates":[-119.043151,35.278932]},"properties":{"cartodb_id":372,"id":135371,"street":"0 TAMWORTH ST","city":"Boston","state":"MA"}},{"type":"Feature","geometry":{"type":"Point","coordinates":[-71.159854,42.348744]},"properties":{"cartodb_id":373,"id":135372,"street":"00 WASHINGTON ST","city":"Boston","state":"MA"}},{"type":"Feature","geometry":{"type":"Point","coordinates":[-71.13401,42.36133]},"properties":{"cartodb_id":374,"id":135373,"street":"0 W 6TH ST at E ST","city":"Boston","state":"MA"}},{"type":"Feature","geometry":{"type":"Point","coordinates":[-71.070362,42.36203]},"properties":{"cartodb_id":375,"id":135374,"street":"215 CHARLES ST","city":"Boston","state":"MA"}},{"type":"Feature","geometry":{"type":"Point","coordinates":[-71.09097,42.28683]},"properties":{"cartodb_id":376,"id":135375,"street":"00 BLUE HILL AV at TENNIS RD","city":"Boston","state":"MA"}},{"type":"Feature","geometry":{"type":"Point","coordinates":[-70.304478,41.630678]},"properties":{"cartodb_id":377,"id":135376,"street":"8 PARK PL","city":"Boston","state":"MA"}},{"type":"Feature","geometry":{"type":"Point","coordinates":[-71.121921,42.293253]},"properties":{"cartodb_id":378,"id":135377,"street":"00 ARCHDALE RD","city":"Boston","state":"MA"}},{"type":"Feature","geometry":{"type":"Point","coordinates":[-71.110451,42.304191]},"properties":{"cartodb_id":379,"id":135378,"street":" WASHINGTON ST at BURNETT ST","city":"Boston","state":"MA"}},{"type":"Feature","geometry":{"type":"Point","coordinates":[-71.159854,42.348744]},"properties":{"cartodb_id":380,"id":135379,"street":"00 WASHINGTON ST","city":"Boston","state":"MA"}},{"type":"Feature","geometry":{"type":"Point","coordinates":[-71.07784,42.33631]},"properties":{"cartodb_id":381,"id":135380,"street":"00 NORTHAMPTON ST","city":"Boston","state":"MA"}},{"type":"Feature","geometry":{"type":"Point","coordinates":[-71.0712,42.31806]},"properties":{"cartodb_id":382,"id":135381,"street":" WOODFORD ST","city":"Boston","state":"MA"}},{"type":"Feature","geometry":{"type":"Point","coordinates":[-71.07967,42.32006]},"properties":{"cartodb_id":383,"id":135382,"street":"40 CLIFFORD ST","city":"Boston","state":"MA"}},{"type":"Feature","geometry":{"type":"Point","coordinates":[-71.05742,42.33563]},"properties":{"cartodb_id":384,"id":135383,"street":" DORCHESTER AV at CHARLES ST","city":"Boston","state":"MA"}},{"type":"Feature","geometry":{"type":"Point","coordinates":[-71.05331,42.32836]},"properties":{"cartodb_id":385,"id":135384,"street":"0 LOGAN WY at MCDONOUGH WY","city":"Boston","state":"MA"}},{"type":"Feature","geometry":{"type":"Point","coordinates":[-71.057813,42.377486]},"properties":{"cartodb_id":386,"id":135385,"street":" BUNKER HILL ST","city":"Boston","state":"MA"}},{"type":"Feature","geometry":{"type":"Point","coordinates":[-71.06189,42.320677]},"properties":{"cartodb_id":387,"id":135386,"street":"0 BLUE HILL AV","city":"Boston","state":"MA"}},{"type":"Feature","geometry":{"type":"Point","coordinates":[-71.06275,42.35889]},"properties":{"cartodb_id":388,"id":135387,"street":" BOWDOIN ST at GENEVA ST","city":"Boston","state":"MA"}},{"type":"Feature","geometry":{"type":"Point","coordinates":[-71.0599,42.35192]},"properties":{"cartodb_id":389,"id":135388,"street":" EDINBORO ST","city":"Boston","state":"MA"}},{"type":"Feature","geometry":{"type":"Point","coordinates":[-71.052428,42.340683]},"properties":{"cartodb_id":390,"id":135389,"street":" WASHINGTON ST at UKRAINE WY","city":"Boston","state":"MA"}},{"type":"Feature","geometry":{"type":"Point","coordinates":[-71.08377,42.32887]},"properties":{"cartodb_id":391,"id":135390,"street":" COLUMBIA RD at DUDLEY ST","city":"Boston","state":"MA"}},{"type":"Feature","geometry":{"type":"Point","coordinates":[-70.203484,41.737197]},"properties":{"cartodb_id":392,"id":135391,"street":" BEACH ST","city":"Boston","state":"MA"}},{"type":"Feature","geometry":{"type":"Point","coordinates":[-71.083944,42.327651]},"properties":{"cartodb_id":393,"id":135392,"street":"85 WARREN ST","city":"Boston","state":"MA"}},{"type":"Feature","geometry":{"type":"Point","coordinates":[-71.0638,42.35216]},"properties":{"cartodb_id":394,"id":135393,"street":"40 BOYLSTON ST","city":"Boston","state":"MA"}},{"type":"Feature","geometry":{"type":"Point","coordinates":[-71.07995,42.30342]},"properties":{"cartodb_id":395,"id":135394,"street":" WASHINGTON ST at FENELON ST","city":"Boston","state":"MA"}},{"type":"Feature","geometry":{"type":"Point","coordinates":[-71.116235,42.310022]},"properties":{"cartodb_id":396,"id":135395,"street":"6 ELIOT ST","city":"Boston","state":"MA"}},{"type":"Feature","geometry":{"type":"Point","coordinates":[-71.081801,42.336237]},"properties":{"cartodb_id":397,"id":135396,"street":"18 LATTIMORE CT","city":"Boston","state":"MA"}},{"type":"Feature","geometry":{"type":"Point","coordinates":[-71.06692,42.31306]},"properties":{"cartodb_id":398,"id":135397,"street":"33 GLENDALE ST","city":"Boston","state":"MA"}},{"type":"Feature","geometry":{"type":"Point","coordinates":[-71.11251,42.31258]},"properties":{"cartodb_id":399,"id":135398,"street":"29 GREEN ST","city":"Boston","state":"MA"}},{"type":"Feature","geometry":{"type":"Point","coordinates":[-71.10025,42.32457]},"properties":{"cartodb_id":400,"id":135399,"street":"944 PARKER ST","city":"Boston","state":"MA"}},{"type":"Feature","geometry":{"type":"Point","coordinates":[-71.14464,42.29789]},"properties":{"cartodb_id":401,"id":135400,"street":" HACKENSACK RD at PAYSON AV","city":"Boston","state":"MA"}},{"type":"Feature","geometry":{"type":"Point","coordinates":[-75.98675,40.313766]},"properties":{"cartodb_id":402,"id":135401,"street":"0 DORCHESTER AV at VON HILLERN","city":"Boston","state":"MA"}},{"type":"Feature","geometry":{"type":"Point","coordinates":[-71.07218,42.30888]},"properties":{"cartodb_id":403,"id":135402,"street":"12 RICHFIELD ST","city":"Boston","state":"MA"}},{"type":"Feature","geometry":{"type":"Point","coordinates":[-70.920248,41.89749]},"properties":{"cartodb_id":404,"id":135403,"street":"70 CAMBRIDGE ST","city":"Boston","state":"MA"}},{"type":"Feature","geometry":{"type":"Point","coordinates":[-71.071911,42.329333]},"properties":{"cartodb_id":405,"id":135404,"street":"82 GERARD ST","city":"Boston","state":"MA"}},{"type":"Feature","geometry":{"type":"Point","coordinates":[-71.081956,42.337023]},"properties":{"cartodb_id":406,"id":135405,"street":"18 DITMUS CT","city":"Boston","state":"MA"}},{"type":"Feature","geometry":{"type":"Point","coordinates":[-71.08363,42.33518]},"properties":{"cartodb_id":407,"id":135406,"street":"53 WINDSOR ST","city":"Boston","state":"MA"}},{"type":"Feature","geometry":{"type":"Point","coordinates":[-71.08146,42.3044]},"properties":{"cartodb_id":408,"id":135407,"street":"81 COLUMBIA RD","city":"Boston","state":"MA"}},{"type":"Feature","geometry":{"type":"Point","coordinates":[-71.05739,42.32975]},"properties":{"cartodb_id":409,"id":135408,"street":"510 SOUTHAMPTON ST","city":"Boston","state":"MA"}},{"type":"Feature","geometry":{"type":"Point","coordinates":[-71.0599,42.35192]},"properties":{"cartodb_id":410,"id":135409,"street":" EDINBORO ST at ESSEX ST","city":"Boston","state":"MA"}},{"type":"Feature","geometry":{"type":"Point","coordinates":[-71.08013,42.28818]},"properties":{"cartodb_id":411,"id":135410,"street":" WOODROW AV at NORFOLK ST","city":"Boston","state":"MA"}},{"type":"Feature","geometry":{"type":"Point","coordinates":[-71.11091,42.32143]},"properties":{"cartodb_id":412,"id":135411,"street":"413 CENTRE ST","city":"Boston","state":"MA"}},{"type":"Feature","geometry":{"type":"Point","coordinates":[-71.03613,42.37807]},"properties":{"cartodb_id":413,"id":135412,"street":"97 LEXINGTON ST","city":"Boston","state":"MA"}},{"type":"Feature","geometry":{"type":"Point","coordinates":[-71.07854,42.28723]},"properties":{"cartodb_id":414,"id":135413,"street":"156 NORFOLK ST","city":"Boston","state":"MA"}},{"type":"Feature","geometry":{"type":"Point","coordinates":[-71.1156,42.309953]},"properties":{"cartodb_id":415,"id":135414,"street":"779 CENTRE ST","city":"Boston","state":"MA"}},{"type":"Feature","geometry":{"type":"Point","coordinates":[-75.98675,40.313766]},"properties":{"cartodb_id":416,"id":135415,"street":"769 DORCHESTER AV","city":"Boston","state":"MA"}},{"type":"Feature","geometry":{"type":"Point","coordinates":[-104.805976,40.085558]},"properties":{"cartodb_id":417,"id":135416,"street":"00 HARRISON AV","city":"Boston","state":"MA"}},{"type":"Feature","geometry":{"type":"Point","coordinates":[-90.379558,43.340027]},"properties":{"cartodb_id":418,"id":135417,"street":"584 E 3RD ST","city":"Boston","state":"MA"}},{"type":"Feature","geometry":{"type":"Point","coordinates":[-71.06111,42.34934]},"properties":{"cartodb_id":419,"id":135418,"street":" HARVARD ST at BERNARD ST","city":"Boston","state":"MA"}},{"type":"Feature","geometry":{"type":"Point","coordinates":[-121.304658,37.811234]},"properties":{"cartodb_id":420,"id":135419,"street":" NEW ENGLAND AV","city":"Boston","state":"MA"}},{"type":"Feature","geometry":{"type":"Point","coordinates":[-71.05742,42.33563]},"properties":{"cartodb_id":421,"id":135420,"street":" DORCHESTER AV at COLUMBIA RD","city":"Boston","state":"MA"}},{"type":"Feature","geometry":{"type":"Point","coordinates":[-71.060432,42.351484]},"properties":{"cartodb_id":422,"id":135421,"street":"0 OXFORD ST","city":"Boston","state":"MA"}},{"type":"Feature","geometry":{"type":"Point","coordinates":[-75.98675,40.313766]},"properties":{"cartodb_id":423,"id":135422,"street":"00 DORCHESTER AV","city":"Boston","state":"MA"}},{"type":"Feature","geometry":{"type":"Point","coordinates":[-71.05179,42.32982]},"properties":{"cartodb_id":424,"id":135423,"street":"00 COLUMBIA RD","city":"Boston","state":"MA"}},{"type":"Feature","geometry":{"type":"Point","coordinates":[-71.071928,42.273432]},"properties":{"cartodb_id":425,"id":135424,"street":" GALLIVAN BL at MORTON ST","city":"Boston","state":"MA"}},{"type":"Feature","geometry":{"type":"Point","coordinates":[-71.07918,42.30479]},"properties":{"cartodb_id":426,"id":135425,"street":" COLUMBIA RD at BRINSLEY ST","city":"Boston","state":"MA"}},{"type":"Feature","geometry":{"type":"Point","coordinates":[-71.059803,42.353747]},"properties":{"cartodb_id":427,"id":135426,"street":" CHAUNCY ST","city":"Boston","state":"MA"}},{"type":"Feature","geometry":{"type":"Point","coordinates":[-71.12808,42.30139]},"properties":{"cartodb_id":428,"id":135427,"street":"1153 CENTRE ST","city":"Boston","state":"MA"}},{"type":"Feature","geometry":{"type":"Point","coordinates":[-71.09415,42.33409]},"properties":{"cartodb_id":429,"id":135428,"street":" PARKER ST at PRENTISS ST","city":"Boston","state":"MA"}},{"type":"Feature","geometry":{"type":"Point","coordinates":[-71.15613,42.26343]},"properties":{"cartodb_id":430,"id":135429,"street":"5125 WASHINGTON ST","city":"Boston","state":"MA"}},{"type":"Feature","geometry":{"type":"Point","coordinates":[-71.11875,42.31014]},"properties":{"cartodb_id":431,"id":135430,"street":"41 ALDWORTH ST","city":"Boston","state":"MA"}},{"type":"Feature","geometry":{"type":"Point","coordinates":[-71.081383,42.336613]},"properties":{"cartodb_id":432,"id":135431,"street":"2 LATTIMORE CT","city":"Boston","state":"MA"}},{"type":"Feature","geometry":{"type":"Point","coordinates":[-83.310088,30.823119]},"properties":{"cartodb_id":433,"id":135432,"street":"120 HAZELTON ST","city":"Boston","state":"MA"}},{"type":"Feature","geometry":{"type":"Point","coordinates":[-71.075567,42.299155]},"properties":{"cartodb_id":434,"id":135433,"street":" HARVARD ST at FRANKLIN HILL A","city":"Boston","state":"MA"}},{"type":"Feature","geometry":{"type":"Point","coordinates":[-71.06329,42.32933]},"properties":{"cartodb_id":435,"id":135434,"street":"7 ALLSTATE RD","city":"Boston","state":"MA"}},{"type":"Feature","geometry":{"type":"Point","coordinates":[-71.09132,42.28226]},"properties":{"cartodb_id":436,"id":135435,"street":"14 WOOLSON ST","city":"Boston","state":"MA"}},{"type":"Feature","geometry":{"type":"Point","coordinates":[-71.081801,42.336237]},"properties":{"cartodb_id":437,"id":135436,"street":"18 LATTIMORE CT","city":"Boston","state":"MA"}},{"type":"Feature","geometry":{"type":"Point","coordinates":[-71.0888,42.288]},"properties":{"cartodb_id":438,"id":135437,"street":" ASHTON ST at BALSAM ST","city":"Boston","state":"MA"}},{"type":"Feature","geometry":{"type":"Point","coordinates":[-71.077343,42.320836]},"properties":{"cartodb_id":439,"id":135438,"street":"120 BLUE HILL AV","city":"Boston","state":"MA"}},{"type":"Feature","geometry":{"type":"Point","coordinates":[-71.08675,42.31599]},"properties":{"cartodb_id":440,"id":135439,"street":" HUMBOLDT AV at WALNUT AV","city":"Boston","state":"MA"}},{"type":"Feature","geometry":{"type":"Point","coordinates":[-71.08321,42.30718]},"properties":{"cartodb_id":441,"id":135440,"street":" BLUE HILL AV at CASTLEGATE RD","city":"Boston","state":"MA"}},{"type":"Feature","geometry":{"type":"Point","coordinates":[-76.338975,37.032787]},"properties":{"cartodb_id":442,"id":135441,"street":"538 RIVER ST","city":"Boston","state":"MA"}},{"type":"Feature","geometry":{"type":"Point","coordinates":[-71.06053,42.35054]},"properties":{"cartodb_id":443,"id":135442,"street":" KNEELAND ST","city":"Boston","state":"MA"}},{"type":"Feature","geometry":{"type":"Point","coordinates":[-71.072694,42.351189]},"properties":{"cartodb_id":444,"id":135443,"street":" BOYLSTON ST","city":"Boston","state":"MA"}},{"type":"Feature","geometry":{"type":"Point","coordinates":[-71.08377,42.32887]},"properties":{"cartodb_id":445,"id":135444,"street":"769 DUDLEY ST","city":"Boston","state":"MA"}},{"type":"Feature","geometry":{"type":"Point","coordinates":[-71.08492,42.32941]},"properties":{"cartodb_id":446,"id":135445,"street":"2363 WASHINGTON ST","city":"Boston","state":"MA"}},{"type":"Feature","geometry":{"type":"Point","coordinates":[-95.896069,41.139057]},"properties":{"cartodb_id":447,"id":135446,"street":"2007 WASHINGTON ST","city":"Boston","state":"MA"}},{"type":"Feature","geometry":{"type":"Point","coordinates":[-71.171665,42.35181]},"properties":{"cartodb_id":448,"id":135447,"street":"680 WASHINGTON ST","city":"Boston","state":"MA"}},{"type":"Feature","geometry":{"type":"Point","coordinates":[-71.08377,42.32887]},"properties":{"cartodb_id":449,"id":135448,"street":" DUDLEY ST at HARRISON AV","city":"Boston","state":"MA"}},{"type":"Feature","geometry":{"type":"Point","coordinates":[-71.061736,42.356431]},"properties":{"cartodb_id":450,"id":135449,"street":"125 TREMONT ST","city":"Boston","state":"MA"}},{"type":"Feature","geometry":{"type":"Point","coordinates":[-71.07277,42.29311]},"properties":{"cartodb_id":451,"id":135450,"street":"15 DUNLAP ST","city":"Boston","state":"MA"}},{"type":"Feature","geometry":{"type":"Point","coordinates":[-71.05179,42.32982]},"properties":{"cartodb_id":452,"id":135451,"street":" COLUMBIA RD at BIRD ST","city":"Boston","state":"MA"}},{"type":"Feature","geometry":{"type":"Point","coordinates":[-117.914022,33.870096]},"properties":{"cartodb_id":453,"id":135452,"street":"532 COMMONWEALTH AV","city":"Boston","state":"MA"}},{"type":"Feature","geometry":{"type":"Point","coordinates":[-71.05177,42.31005]},"properties":{"cartodb_id":454,"id":135453,"street":"153 BLUE HILL AV","city":"Boston","state":"MA"}},{"type":"Feature","geometry":{"type":"Point","coordinates":[-71.05742,42.33563]},"properties":{"cartodb_id":455,"id":135454,"street":" DORCHESTER AV at LYON ST","city":"Boston","state":"MA"}},{"type":"Feature","geometry":{"type":"Point","coordinates":[-71.16963,42.27255]},"properties":{"cartodb_id":456,"id":135455,"street":" SPRING ST at GOULD ST","city":"Boston","state":"MA"}},{"type":"Feature","geometry":{"type":"Point","coordinates":[-71.10603,42.32429]},"properties":{"cartodb_id":457,"id":135456,"street":"7 EDGE HILL ST","city":"Boston","state":"MA"}},{"type":"Feature","geometry":{"type":"Point","coordinates":[-71.05507,42.29554]},"properties":{"cartodb_id":458,"id":135457,"street":"10 TRAIN ST","city":"Boston","state":"MA"}},{"type":"Feature","geometry":{"type":"Point","coordinates":[-71.072694,42.351189]},"properties":{"cartodb_id":459,"id":135458,"street":" BOYLSTON ST","city":"Boston","state":"MA"}},{"type":"Feature","geometry":{"type":"Point","coordinates":[-71.04813,42.33515]},"properties":{"cartodb_id":460,"id":135459,"street":"269 GOLD ST","city":"Boston","state":"MA"}},{"type":"Feature","geometry":{"type":"Point","coordinates":[-82.325709,35.615341]},"properties":{"cartodb_id":461,"id":135460,"street":"200 BORDER ST","city":"Boston","state":"MA"}},{"type":"Feature","geometry":{"type":"Point","coordinates":[-71.05268,42.33208]},"properties":{"cartodb_id":462,"id":135461,"street":" DORCHESTER ST","city":"Boston","state":"MA"}},{"type":"Feature","geometry":{"type":"Point","coordinates":[-71.13101,42.2841]},"properties":{"cartodb_id":463,"id":135462,"street":"4323 WASHINGTON ST","city":"Boston","state":"MA"}},{"type":"Feature","geometry":{"type":"Point","coordinates":[-71.06263,42.28906]},"properties":{"cartodb_id":464,"id":135463,"street":" DORCHESTER AV at EDWIN ST","city":"Boston","state":"MA"}},{"type":"Feature","geometry":{"type":"Point","coordinates":[-71.09097,42.28683]},"properties":{"cartodb_id":465,"id":135464,"street":"0 INGLESIDE ST at BLUE HILL AV","city":"Boston","state":"MA"}},{"type":"Feature","geometry":{"type":"Point","coordinates":[-71.063122,42.342783]},"properties":{"cartodb_id":466,"id":135465,"street":"273 E BERKELEY ST","city":"Boston","state":"MA"}},{"type":"Feature","geometry":{"type":"Point","coordinates":[-119.281535,35.501433]},"properties":{"cartodb_id":467,"id":135466,"street":" ATLANTIC AV","city":"Boston","state":"MA"}},{"type":"Feature","geometry":{"type":"Point","coordinates":[-71.006596,42.256884]},"properties":{"cartodb_id":468,"id":135467,"street":" MARGINAL RD","city":"Boston","state":"MA"}},{"type":"Feature","geometry":{"type":"Point","coordinates":[-70.980805,42.375253]},"properties":{"cartodb_id":469,"id":135468,"street":"224  BOWDOIN AV","city":"Boston","state":"MA"}},{"type":"Feature","geometry":{"type":"Point","coordinates":[-71.08381,42.3216]},"properties":{"cartodb_id":470,"id":135469,"street":" DALE ST at ROCKLAND AV","city":"Boston","state":"MA"}},{"type":"Feature","geometry":{"type":"Point","coordinates":[-71.08381,42.3216]},"properties":{"cartodb_id":471,"id":135470,"street":" DALE ST at ROCKLAND AV","city":"Boston","state":"MA"}},{"type":"Feature","geometry":{"type":"Point","coordinates":[-71.11037,42.26862]},"properties":{"cartodb_id":472,"id":135471,"street":" OAKWOOD ST","city":"Boston","state":"MA"}},{"type":"Feature","geometry":{"type":"Point","coordinates":[-71.05742,42.33563]},"properties":{"cartodb_id":473,"id":135472,"street":" BAILEY ST at DORCHESTER AV","city":"Boston","state":"MA"}},{"type":"Feature","geometry":{"type":"Point","coordinates":[-71.068275,42.354356]},"properties":{"cartodb_id":474,"id":135473,"street":"0 L ST at MARINE RD","city":"Boston","state":"MA"}},{"type":"Feature","geometry":{"type":"Point","coordinates":[-83.760495,42.270906]},"properties":{"cartodb_id":475,"id":135474,"street":"40 MT PLEASANT AV","city":"Boston","state":"MA"}},{"type":"Feature","geometry":{"type":"Point","coordinates":[-71.082773,42.33016]},"properties":{"cartodb_id":476,"id":135475,"street":" TABER ST at WARREN ST","city":"Boston","state":"MA"}},{"type":"Feature","geometry":{"type":"Point","coordinates":[-71.055259,42.334608]},"properties":{"cartodb_id":477,"id":135476,"street":"0 PREBLE ST at OLD COLONY AV","city":"Boston","state":"MA"}},{"type":"Feature","geometry":{"type":"Point","coordinates":[-71.063366,42.379173]},"properties":{"cartodb_id":478,"id":135477,"street":" SCHOOL ST","city":"Boston","state":"MA"}},{"type":"Feature","geometry":{"type":"Point","coordinates":[-71.07006,42.2851]},"properties":{"cartodb_id":479,"id":135478,"street":" WASHINGTON ST at ASHMONT ST","city":"Boston","state":"MA"}},{"type":"Feature","geometry":{"type":"Point","coordinates":[-71.06169,42.37356]},"properties":{"cartodb_id":480,"id":135479,"street":"0 WARREN ST at WINTHROP ST","city":"Boston","state":"MA"}},{"type":"Feature","geometry":{"type":"Point","coordinates":[-71.07328,42.29295]},"properties":{"cartodb_id":481,"id":135480,"street":" WASHINGTON ST at DUNLAP ST","city":"Boston","state":"MA"}},{"type":"Feature","geometry":{"type":"Point","coordinates":[-71.05742,42.33563]},"properties":{"cartodb_id":482,"id":135481,"street":"0 DORCHESTER AV at SONGIN WY","city":"Boston","state":"MA"}},{"type":"Feature","geometry":{"type":"Point","coordinates":[-71.024655,42.272239]},"properties":{"cartodb_id":483,"id":135482,"street":"120 HOLMES ST","city":"Boston","state":"MA"}},{"type":"Feature","geometry":{"type":"Point","coordinates":[-71.08757,42.28748]},"properties":{"cartodb_id":484,"id":135483,"street":"44 ARBUTUS ST","city":"Boston","state":"MA"}},{"type":"Feature","geometry":{"type":"Point","coordinates":[-71.08437,42.30473]},"properties":{"cartodb_id":485,"id":135484,"street":"570 BLUE HILL AV","city":"Boston","state":"MA"}},{"type":"Feature","geometry":{"type":"Point","coordinates":[-71.09097,42.28683]},"properties":{"cartodb_id":486,"id":135485,"street":" BLUE HILL AV","city":"Boston","state":"MA"}},{"type":"Feature","geometry":{"type":"Point","coordinates":[-71.06129,42.32729]},"properties":{"cartodb_id":487,"id":135486,"street":"12 ALLSTATE RD","city":"Boston","state":"MA"}},{"type":"Feature","geometry":{"type":"Point","coordinates":[-71.08168,42.29654]},"properties":{"cartodb_id":488,"id":135487,"street":"6 GLEASON ST","city":"Boston","state":"MA"}},{"type":"Feature","geometry":{"type":"Point","coordinates":[-71.058017,42.312539]},"properties":{"cartodb_id":489,"id":135488,"street":" DEER ST","city":"Boston","state":"MA"}},{"type":"Feature","geometry":{"type":"Point","coordinates":[-114.342889,48.245726]},"properties":{"cartodb_id":490,"id":135489,"street":"42 LOGAN WY","city":"Boston","state":"MA"}},{"type":"Feature","geometry":{"type":"Point","coordinates":[-80.430705,37.069352]},"properties":{"cartodb_id":491,"id":135490,"street":" SURFACE RD","city":"Boston","state":"MA"}},{"type":"Feature","geometry":{"type":"Point","coordinates":[-71.06172,42.31439]},"properties":{"cartodb_id":492,"id":135491,"street":"23 SALCOMBE ST","city":"Boston","state":"MA"}},{"type":"Feature","geometry":{"type":"Point","coordinates":[-71.0709,42.296]},"properties":{"cartodb_id":493,"id":135492,"street":" BOWDOIN AV at CLAYBOURNE ST","city":"Boston","state":"MA"}},{"type":"Feature","geometry":{"type":"Point","coordinates":[-71.039601,42.374213]},"properties":{"cartodb_id":494,"id":135493,"street":" CENTRAL SQ","city":"Boston","state":"MA"}},{"type":"Feature","geometry":{"type":"Point","coordinates":[-71.06366,42.29303]},"properties":{"cartodb_id":495,"id":135494,"street":"225 CENTRE ST","city":"Boston","state":"MA"}},{"type":"Feature","geometry":{"type":"Point","coordinates":[-71.099926,42.317853]},"properties":{"cartodb_id":496,"id":135495,"street":"66 WALNUT PK","city":"Boston","state":"MA"}},{"type":"Feature","geometry":{"type":"Point","coordinates":[-71.08667,42.2905]},"properties":{"cartodb_id":497,"id":135496,"street":"5 AMES ST","city":"Boston","state":"MA"}},{"type":"Feature","geometry":{"type":"Point","coordinates":[-71.07559,42.34615]},"properties":{"cartodb_id":498,"id":135497,"street":"00 DARTMOUTH ST","city":"Boston","state":"MA"}},{"type":"Feature","geometry":{"type":"Point","coordinates":[-71.15932,42.28103]},"properties":{"cartodb_id":499,"id":135498,"street":" LAGRANGE ST","city":"Boston","state":"MA"}},{"type":"Feature","geometry":{"type":"Point","coordinates":[-71.081174,42.30918]},"properties":{"cartodb_id":500,"id":135499,"street":"460 BLUE HILL AV","city":"Boston","state":"MA"}},{"type":"Feature","geometry":{"type":"Point","coordinates":[-71.09097,42.28683]},"properties":{"cartodb_id":501,"id":135500,"street":" BLUE HILL AV at WESTVIEW ST","city":"Boston","state":"MA"}},{"type":"Feature","geometry":{"type":"Point","coordinates":[-71.000322,42.384154]},"properties":{"cartodb_id":502,"id":135501,"street":"1147   SARATOGA ST","city":"Boston","state":"MA"}},{"type":"Feature","geometry":{"type":"Point","coordinates":[-71.095401,42.333033]},"properties":{"cartodb_id":503,"id":135502,"street":" HALLECK ST","city":"Boston","state":"MA"}},{"type":"Feature","geometry":{"type":"Point","coordinates":[-71.08587,42.32367]},"properties":{"cartodb_id":504,"id":135503,"street":"35 CIRCUIT ST","city":"Boston","state":"MA"}},{"type":"Feature","geometry":{"type":"Point","coordinates":[-70.203484,41.737197]},"properties":{"cartodb_id":505,"id":135504,"street":" BEACH ST","city":"Boston","state":"MA"}},{"type":"Feature","geometry":{"type":"Point","coordinates":[-70.203484,41.737197]},"properties":{"cartodb_id":506,"id":135505,"street":" BEACH ST","city":"Boston","state":"MA"}},{"type":"Feature","geometry":{"type":"Point","coordinates":[-74.575772,39.967536]},"properties":{"cartodb_id":507,"id":135506,"street":"1973 COLUMBUS AV","city":"Boston","state":"MA"}},{"type":"Feature","geometry":{"type":"Point","coordinates":[-74.575772,39.967536]},"properties":{"cartodb_id":508,"id":135507,"street":"1973 COLUMBUS AV","city":"Boston","state":"MA"}},{"type":"Feature","geometry":{"type":"Point","coordinates":[-71.124872,42.290436]},"properties":{"cartodb_id":509,"id":135508,"street":" SOUTH ST","city":"Boston","state":"MA"}},{"type":"Feature","geometry":{"type":"Point","coordinates":[-71.10968,42.30982]},"properties":{"cartodb_id":510,"id":135509,"street":" GREEN ST at BISHOP ST","city":"Boston","state":"MA"}},{"type":"Feature","geometry":{"type":"Point","coordinates":[-71.05179,42.32982]},"properties":{"cartodb_id":511,"id":135510,"street":" HAMILTON ST at COLUMBIA RD","city":"Boston","state":"MA"}},{"type":"Feature","geometry":{"type":"Point","coordinates":[-71.040256,42.376675]},"properties":{"cartodb_id":512,"id":135511,"street":"246  BORDER ST","city":"Boston","state":"MA"}},{"type":"Feature","geometry":{"type":"Point","coordinates":[-71.06306,42.355223]},"properties":{"cartodb_id":513,"id":135512,"street":"00 TREMONT ST","city":"Boston","state":"MA"}},{"type":"Feature","geometry":{"type":"Point","coordinates":[-71.061736,42.356431]},"properties":{"cartodb_id":514,"id":135513,"street":"125 TREMONT ST","city":"Boston","state":"MA"}},{"type":"Feature","geometry":{"type":"Point","coordinates":[-71.08476,42.3299]},"properties":{"cartodb_id":515,"id":135514,"street":"2343 WASHINGTON ST","city":"Boston","state":"MA"}},{"type":"Feature","geometry":{"type":"Point","coordinates":[-71.06011,42.35112]},"properties":{"cartodb_id":516,"id":135515,"street":"65 BEACH ST","city":"Boston","state":"MA"}},{"type":"Feature","geometry":{"type":"Point","coordinates":[-71.072694,42.351189]},"properties":{"cartodb_id":517,"id":135516,"street":" BOYLSTON ST","city":"Boston","state":"MA"}},{"type":"Feature","geometry":{"type":"Point","coordinates":[-71.10315,42.324074]},"properties":{"cartodb_id":518,"id":135517,"street":"301 CENTRE ST","city":"Boston","state":"MA"}},{"type":"Feature","geometry":{"type":"Point","coordinates":[-82.325709,35.615341]},"properties":{"cartodb_id":519,"id":135518,"street":"200 BORDER ST","city":"Boston","state":"MA"}},{"type":"Feature","geometry":{"type":"Point","coordinates":[-71.0501,42.29859]},"properties":{"cartodb_id":520,"id":135519,"street":"22 BLANCHE ST","city":"Boston","state":"MA"}},{"type":"Feature","geometry":{"type":"Point","coordinates":[-71.9918,42.412755]},"properties":{"cartodb_id":521,"id":135520,"street":" COLUMBIA RD at INTERVALE ST","city":"Boston","state":"MA"}},{"type":"Feature","geometry":{"type":"Point","coordinates":[-71.09132,42.28226]},"properties":{"cartodb_id":522,"id":135521,"street":"14 WOOLSON ST","city":"Boston","state":"MA"}},{"type":"Feature","geometry":{"type":"Point","coordinates":[-71.098047,42.316468]},"properties":{"cartodb_id":523,"id":135522,"street":"3055 WASHINGTON ST","city":"Boston","state":"MA"}},{"type":"Feature","geometry":{"type":"Point","coordinates":[-71.078029,42.318968]},