{"type": "FeatureCollection", "features": [{"type":"Feature","geometry":{"type":"Point","coordinates":[-117.089264,32.681111]},"properties":{"cartodb_id":449,"id":30448,"state":"MA","city":"Boston","street":" E 8TH ST"}},{"type":"Feature","geometry":{"type":"Point","coordinates":[-71.05383,42.29377]},"properties":{"cartodb_id":773,"id":30772,"state":"MA","city":"Boston","street":" KING ST"}},{"type":"Feature","geometry":{"type":"Point","coordinates":[-71.08114,42.33682]},"properties":{"cartodb_id":1802,"id":31801,"state":"MA","city":"Boston","street":" LENOX ST"}},{"type":"Feature","geometry":{"type":"Point","coordinates":[-71.11209,42.26298]},"properties":{"cartodb_id":2031,"id":32030,"state":"MA","city":"Boston","street":" REDDY AV"}},{"type":"Feature","geometry":{"type":"Point","coordinates":[-71.12205,42.25446]},"properties":{"cartodb_id":2160,"id":32159,"state":"MA","city":"Boston","street":" MAPLE ST"}},{"type":"Feature","geometry":{"type":"Point","coordinates":[-121.230616,37.966129]},"properties":{"cartodb_id":3740,"id":33739,"state":"MA","city":"Boston","street":" DANA AV"}},{"type":"Feature","geometry":{"type":"Point","coordinates":[-71.06306,42.355223]},"properties":{"cartodb_id":4242,"id":34241,"state":"MA","city":"Boston","street":" TREMONT ST"}},{"type":"Feature","geometry":{"type":"Point","coordinates":[-71.039041,42.38274]},"properties":{"cartodb_id":4581,"id":34580,"state":"MA","city":"Boston","street":" CONDOR ST"}},{"type":"Feature","geometry":{"type":"Point","coordinates":[-71.05821,42.29609]},"properties":{"cartodb_id":5707,"id":35706,"state":"MA","city":"Boston","street":"78 DIX ST"}},{"type":"Feature","geometry":{"type":"Point","coordinates":[-71.063199,42.348203]},"properties":{"cartodb_id":6221,"id":36220,"state":"MA","city":"Boston","street":" OAK ST"}},{"type":"Feature","geometry":{"type":"Point","coordinates":[-71.1021,42.32621]},"properties":{"cartodb_id":6605,"id":36604,"state":"MA","city":"Boston","street":" HEATH ST"}},{"type":"Feature","geometry":{"type":"Point","coordinates":[-71.08387,42.3209]},"properties":{"cartodb_id":7039,"id":37038,"state":"MA","city":"Boston","street":"0 DALE ST"}},{"type":"Feature","geometry":{"type":"Point","coordinates":[-71.064929,42.2999]},"properties":{"cartodb_id":7260,"id":37259,"state":"MA","city":"Boston","street":"73 CHARLES ST"}},{"type":"Feature","geometry":{"type":"Point","coordinates":[-71.1021,42.32621]},"properties":{"cartodb_id":7608,"id":37607,"state":"MA","city":"Boston","street":" HEATH ST"}},{"type":"Feature","geometry":{"type":"Point","coordinates":[-71.08287,42.29967]},"properties":{"cartodb_id":8389,"id":38388,"state":"MA","city":"Boston","street":"9 PAGE ST"}},{"type":"Feature","geometry":{"type":"Point","coordinates":[-71.536123,43.18368]},"properties":{"cartodb_id":8652,"id":38651,"state":"MA","city":"Boston","street":" WOOD AV"}},{"type":"Feature","geometry":{"type":"Point","coordinates":[-71.662336,42.427503]},"properties":{"cartodb_id":8720,"id":38719,"state":"MA","city":"Boston","street":"3 OTIS ST"}},{"type":"Feature","geometry":{"type":"Point","coordinates":[-71.182716,42.235058]},"properties":{"cartodb_id":9942,"id":39941,"state":"MA","city":"Boston","street":"810 WASHINGTON ST"}},{"type":"Feature","geometry":{"type":"Point","coordinates":[-71.121927,42.48037]},"properties":{"cartodb_id":10095,"id":40094,"state":"MA","city":"Boston","street":" UTICA ST"}},{"type":"Feature","geometry":{"type":"Point","coordinates":[-71.08121,42.34935]},"properties":{"cartodb_id":10171,"id":40170,"state":"MA","city":"Boston","street":"761 BOYLSTON ST"}},{"type":"Feature","geometry":{"type":"Point","coordinates":[-71.0937,42.28173]},"properties":{"cartodb_id":10671,"id":40670,"state":"MA","city":"Boston","street":"1 DUKE ST"}},{"type":"Feature","geometry":{"type":"Point","coordinates":[-81.235456,28.969028]},"properties":{"cartodb_id":10728,"id":40727,"state":"MA","city":"Boston","street":"960 MASSACHUSETTS AV"}},{"type":"Feature","geometry":{"type":"Point","coordinates":[-71.05617,42.36637]},"properties":{"cartodb_id":11513,"id":41512,"state":"MA","city":"Boston","street":"32 SHEAFE ST"}},{"type":"Feature","geometry":{"type":"Point","coordinates":[-71.08476,42.3299]},"properties":{"cartodb_id":11849,"id":41848,"state":"MA","city":"Boston","street":"2343 WASHINGTON ST"}},{"type":"Feature","geometry":{"type":"Point","coordinates":[-70.194341,41.73568]},"properties":{"cartodb_id":11983,"id":41982,"state":"MA","city":"Boston","street":" MAIN ST"}},{"type":"Feature","geometry":{"type":"Point","coordinates":[-71.08316,42.33157]},"properties":{"cartodb_id":12632,"id":42631,"state":"MA","city":"Boston","street":"13 RUGGLES ST"}},{"type":"Feature","geometry":{"type":"Point","coordinates":[-71.540307,42.460344]},"properties":{"cartodb_id":13210,"id":43209,"state":"MA","city":"Boston","street":"#NAME?"}},{"type":"Feature","geometry":{"type":"Point","coordinates":[-71.07266,42.31622]},"properties":{"cartodb_id":13642,"id":43641,"state":"MA","city":"Boston","street":"36 HARTFORD ST"}},{"type":"Feature","geometry":{"type":"Point","coordinates":[-71.07903,42.30034]},"properties":{"cartodb_id":359,"id":30358,"state":"MA","city":"Boston","street":"67 NORWELL ST"}},{"type":"Feature","geometry":{"type":"Point","coordinates":[-71.06198,42.35122]},"properties":{"cartodb_id":597,"id":30596,"state":"MA","city":"Boston","street":"0 KNAPP ST"}},{"type":"Feature","geometry":{"type":"Point","coordinates":[-71.08466,42.30673]},"properties":{"cartodb_id":717,"id":30716,"state":"MA","city":"Boston","street":"545 BLUE HILL AV"}},{"type":"Feature","geometry":{"type":"Point","coordinates":[-71.0789,42.33531]},"properties":{"cartodb_id":953,"id":30952,"state":"MA","city":"Boston","street":"1855 WASHINGTON ST"}},{"type":"Feature","geometry":{"type":"Point","coordinates":[-71.09493,42.32252]},"properties":{"cartodb_id":3810,"id":33809,"state":"MA","city":"Boston","street":" VALE ST"}},{"type":"Feature","geometry":{"type":"Point","coordinates":[-85.875651,30.943635]},"properties":{"cartodb_id":4640,"id":34639,"state":"MA","city":"Boston","street":" MT IDA RD"}},{"type":"Feature","geometry":{"type":"Point","coordinates":[-70.162582,41.7372]},"properties":{"cartodb_id":6554,"id":36553,"state":"MA","city":"Boston","street":"21 OBEIRNE PL"}},{"type":"Feature","geometry":{"type":"Point","coordinates":[-71.08251,42.338432]},"properties":{"cartodb_id":8562,"id":38561,"state":"MA","city":"Boston","street":" CAMDEN ST"}},{"type":"Feature","geometry":{"type":"Point","coordinates":[-71.06306,42.355223]},"properties":{"cartodb_id":9274,"id":39273,"state":"MA","city":"Boston","street":"00 TREMONT ST"}},{"type":"Feature","geometry":{"type":"Point","coordinates":[-75.98675,40.313766]},"properties":{"cartodb_id":9393,"id":39392,"state":"MA","city":"Boston","street":" DORCHESTER AV"}},{"type":"Feature","geometry":{"type":"Point","coordinates":[-71.09209,42.27956]},"properties":{"cartodb_id":9511,"id":39510,"state":"MA","city":"Boston","street":" EVELYN ST"}},{"type":"Feature","geometry":{"type":"Point","coordinates":[-71.09387,42.33445]},"properties":{"cartodb_id":9623,"id":39622,"state":"MA","city":"Boston","street":"70 ANNUNCIATION RD"}},{"type":"Feature","geometry":{"type":"Point","coordinates":[-71.09019,42.31698]},"properties":{"cartodb_id":11528,"id":41527,"state":"MA","city":"Boston","street":"133 HAROLD ST"}},{"type":"Feature","geometry":{"type":"Point","coordinates":[-71.06053,42.35054]},"properties":{"cartodb_id":1,"id":30000,"state":"MA","city":"Boston","street":"0 SURFACE RD at KNEELAND ST"}},{"type":"Feature","geometry":{"type":"Point","coordinates":[-71.0709,42.296]},"properties":{"cartodb_id":2,"id":30001,"state":"MA","city":"Boston","street":" CLAYBOURNE ST at BOWDOIN ST"}},{"type":"Feature","geometry":{"type":"Point","coordinates":[-71.0709,42.296]},"properties":{"cartodb_id":3,"id":30002,"state":"MA","city":"Boston","street":" CLAYBOURNE ST at BOWDOIN ST"}},{"type":"Feature","geometry":{"type":"Point","coordinates":[-71.143103,42.342693]},"properties":{"cartodb_id":4,"id":30003,"state":"MA","city":"Boston","street":"1634 BLUE HILL AV"}},{"type":"Feature","geometry":{"type":"Point","coordinates":[-71.143103,42.342693]},"properties":{"cartodb_id":5,"id":30004,"state":"MA","city":"Boston","street":"1634 BLUE HILL AV"}},{"type":"Feature","geometry":{"type":"Point","coordinates":[-71.143103,42.342693]},"properties":{"cartodb_id":6,"id":30005,"state":"MA","city":"Boston","street":"1634 BLUE HILL AV"}},{"type":"Feature","geometry":{"type":"Point","coordinates":[-71.077928,42.291062]},"properties":{"cartodb_id":7,"id":30006,"state":"MA","city":"Boston","street":" NEW ENGLAND AV at SOUTHERN AV"}},{"type":"Feature","geometry":{"type":"Point","coordinates":[-71.0709,42.296]},"properties":{"cartodb_id":8,"id":30007,"state":"MA","city":"Boston","street":" CLAYBOURNE ST at BOWDOIN ST"}},{"type":"Feature","geometry":{"type":"Point","coordinates":[-71.038713,42.382127]},"properties":{"cartodb_id":9,"id":30008,"state":"MA","city":"Boston","street":"26 FALCON ST"}},{"type":"Feature","geometry":{"type":"Point","coordinates":[-71.0709,42.296]},"properties":{"cartodb_id":10,"id":30009,"state":"MA","city":"Boston","street":" CLAYBOURNE ST at BOWDOIN ST"}},{"type":"Feature","geometry":{"type":"Point","coordinates":[-77.060671,38.810312]},"properties":{"cartodb_id":11,"id":30010,"state":"MA","city":"Boston","street":"00 COMMONWEALTH AV at HARVARD"}},{"type":"Feature","geometry":{"type":"Point","coordinates":[-71.03513,42.3733]},"properties":{"cartodb_id":12,"id":30011,"state":"MA","city":"Boston","street":"132 CHELSEA ST"}},{"type":"Feature","geometry":{"type":"Point","coordinates":[-71.09387,42.33445]},"properties":{"cartodb_id":13,"id":30012,"state":"MA","city":"Boston","street":"70 ANNUNCIATION RD"}},{"type":"Feature","geometry":{"type":"Point","coordinates":[-71.035236,42.37995]},"properties":{"cartodb_id":14,"id":30013,"state":"MA","city":"Boston","street":" EUTAW ST at MERIDIAN ST"}},{"type":"Feature","geometry":{"type":"Point","coordinates":[-71.07433,42.31484]},"properties":{"cartodb_id":15,"id":30014,"state":"MA","city":"Boston","street":" CUNNINGHAM ST at WOODLEDGE ST"}},{"type":"Feature","geometry":{"type":"Point","coordinates":[-71.08013,42.28818]},"properties":{"cartodb_id":16,"id":30015,"state":"MA","city":"Boston","street":" NORFOLK ST at WOODROW AV"}},{"type":"Feature","geometry":{"type":"Point","coordinates":[-71.03827,42.36973]},"properties":{"cartodb_id":17,"id":30016,"state":"MA","city":"Boston","street":" MAVERICK ST at PARIS ST"}},{"type":"Feature","geometry":{"type":"Point","coordinates":[-71.07927,42.29255]},"properties":{"cartodb_id":18,"id":30017,"state":"MA","city":"Boston","street":" WASHINGTON ST at TALBOT AV"}},{"type":"Feature","geometry":{"type":"Point","coordinates":[-71.03827,42.36973]},"properties":{"cartodb_id":19,"id":30018,"state":"MA","city":"Boston","street":" MAVERICK ST at PARIS ST"}},{"type":"Feature","geometry":{"type":"Point","coordinates":[-71.08119,42.28811]},"properties":{"cartodb_id":20,"id":30019,"state":"MA","city":"Boston","street":"7 BOYDEN ST"}},{"type":"Feature","geometry":{"type":"Point","coordinates":[-71.14764,42.28117]},"properties":{"cartodb_id":21,"id":30020,"state":"MA","city":"Boston","street":"157 STRATFORD ST"}},{"type":"Feature","geometry":{"type":"Point","coordinates":[-71.058911,42.366386]},"properties":{"cartodb_id":22,"id":30021,"state":"MA","city":"Boston","street":" CAUSEWAY ST"}},{"type":"Feature","geometry":{"type":"Point","coordinates":[-71.09897,42.31636]},"properties":{"cartodb_id":23,"id":30022,"state":"MA","city":"Boston","street":" ATHERTON ST at LAMARTINE ST"}},{"type":"Feature","geometry":{"type":"Point","coordinates":[-71.06524,42.31565]},"properties":{"cartodb_id":24,"id":30023,"state":"MA","city":"Boston","street":"14 WILBUR ST"}},{"type":"Feature","geometry":{"type":"Point","coordinates":[-71.08316,42.33157]},"properties":{"cartodb_id":25,"id":30024,"state":"MA","city":"Boston","street":"13 RUGGLES ST"}},{"type":"Feature","geometry":{"type":"Point","coordinates":[-71.06053,42.35054]},"properties":{"cartodb_id":26,"id":30025,"state":"MA","city":"Boston","street":"0 HARRISON AV at KNEELAND ST"}},{"type":"Feature","geometry":{"type":"Point","coordinates":[-71.08013,42.28818]},"properties":{"cartodb_id":27,"id":30026,"state":"MA","city":"Boston","street":" WOODROW AV at ASHTON ST"}},{"type":"Feature","geometry":{"type":"Point","coordinates":[-71.09097,42.28683]},"properties":{"cartodb_id":28,"id":30027,"state":"MA","city":"Boston","street":" BLUE HILL AV at HARVARD ST"}},{"type":"Feature","geometry":{"type":"Point","coordinates":[-71.142,42.24011]},"properties":{"cartodb_id":29,"id":30028,"state":"MA","city":"Boston","street":" GALLIVAN BL at MILTON ST"}},{"type":"Feature","geometry":{"type":"Point","coordinates":[-71.055678,42.338004]},"properties":{"cartodb_id":30,"id":30029,"state":"MA","city":"Boston","street":"3 DALESSIO CT"}},{"type":"Feature","geometry":{"type":"Point","coordinates":[-71.061736,42.356431]},"properties":{"cartodb_id":31,"id":30030,"state":"MA","city":"Boston","street":"125 TREMONT ST"}},{"type":"Feature","geometry":{"type":"Point","coordinates":[-71.061736,42.356431]},"properties":{"cartodb_id":32,"id":30031,"state":"MA","city":"Boston","street":"125 TREMONT ST"}},{"type":"Feature","geometry":{"type":"Point","coordinates":[-71.14201,42.28698]},"properties":{"cartodb_id":33,"id":30032,"state":"MA","city":"Boston","street":" TYNDALE ST at WALWORTH ST"}},{"type":"Feature","geometry":{"type":"Point","coordinates":[-81.689618,28.895131]},"properties":{"cartodb_id":34,"id":30033,"state":"MA","city":"Boston","street":"124 EUSTIS PL"}},{"type":"Feature","geometry":{"type":"Point","coordinates":[-71.06354,42.31367]},"properties":{"cartodb_id":35,"id":30034,"state":"MA","city":"Boston","street":"114 SAWYER AV"}},{"type":"Feature","geometry":{"type":"Point","coordinates":[-81.5865,29.45768]},"properties":{"cartodb_id":36,"id":30035,"state":"MA","city":"Boston","street":"130 MAGNOLIA ST"}},{"type":"Feature","geometry":{"type":"Point","coordinates":[-74.575772,39.967536]},"properties":{"cartodb_id":37,"id":30036,"state":"MA","city":"Boston","street":"00 COLUMBUS AV"}},{"type":"Feature","geometry":{"type":"Point","coordinates":[-71.05945,42.36346]},"properties":{"cartodb_id":38,"id":30037,"state":"MA","city":"Boston","street":" CANAL ST"}},{"type":"Feature","geometry":{"type":"Point","coordinates":[-71.057813,42.377486]},"properties":{"cartodb_id":39,"id":30038,"state":"MA","city":"Boston","street":"0 BUNKER HILL ST at POLK ST"}},{"type":"Feature","geometry":{"type":"Point","coordinates":[-71.059129,42.356884]},"properties":{"cartodb_id":40,"id":30039,"state":"MA","city":"Boston","street":"333 WASHINGTON ST"}},{"type":"Feature","geometry":{"type":"Point","coordinates":[-71.068275,42.354356]},"properties":{"cartodb_id":41,"id":30040,"state":"MA","city":"Boston","street":"0 CHARLES ST"}},{"type":"Feature","geometry":{"type":"Point","coordinates":[-71.074902,42.313844]},"properties":{"cartodb_id":42,"id":30041,"state":"MA","city":"Boston","street":"75 WAYLAND ST"}},{"type":"Feature","geometry":{"type":"Point","coordinates":[-71.15828,42.34886]},"properties":{"cartodb_id":43,"id":30042,"state":"MA","city":"Boston","street":"450 WASHINGTON ST"}},{"type":"Feature","geometry":{"type":"Point","coordinates":[-71.060905,42.355398]},"properties":{"cartodb_id":44,"id":30043,"state":"MA","city":"Boston","street":"449 WASHINGTON ST"}},{"type":"Feature","geometry":{"type":"Point","coordinates":[-71.060905,42.355398]},"properties":{"cartodb_id":45,"id":30044,"state":"MA","city":"Boston","street":"449 WASHINGTON ST"}},{"type":"Feature","geometry":{"type":"Point","coordinates":[-71.09097,42.28683]},"properties":{"cartodb_id":46,"id":30045,"state":"MA","city":"Boston","street":"0 BLUE HILL AV at QUINCY ST"}},{"type":"Feature","geometry":{"type":"Point","coordinates":[-71.060314,42.356136]},"properties":{"cartodb_id":47,"id":30046,"state":"MA","city":"Boston","street":"405 WASHINGTON ST"}},{"type":"Feature","geometry":{"type":"Point","coordinates":[-71.06031,42.36182]},"properties":{"cartodb_id":48,"id":30047,"state":"MA","city":"Boston","street":"0 CAMBRIDGE ST at SUDBURY ST"}},{"type":"Feature","geometry":{"type":"Point","coordinates":[-71.06031,42.36182]},"properties":{"cartodb_id":49,"id":30048,"state":"MA","city":"Boston","street":"0 SUDBURY ST at CAMBRIDGE ST"}},{"type":"Feature","geometry":{"type":"Point","coordinates":[-71.065528,42.376937]},"properties":{"cartodb_id":50,"id":30049,"state":"MA","city":"Boston","street":"10 SCHOOL ST"}},{"type":"Feature","geometry":{"type":"Point","coordinates":[-71.10249,42.31609]},"properties":{"cartodb_id":51,"id":30050,"state":"MA","city":"Boston","street":"0 BOYLSTON PL"}},{"type":"Feature","geometry":{"type":"Point","coordinates":[-71.09097,42.28683]},"properties":{"cartodb_id":52,"id":30051,"state":"MA","city":"Boston","street":"0 BLUE HILL AV at DUDLEY ST"}},{"type":"Feature","geometry":{"type":"Point","coordinates":[-122.29566,37.892139]},"properties":{"cartodb_id":53,"id":30052,"state":"MA","city":"Boston","street":" TALBOT AV"}},{"type":"Feature","geometry":{"type":"Point","coordinates":[-71.08047,42.33545]},"properties":{"cartodb_id":54,"id":30053,"state":"MA","city":"Boston","street":"614 SHAWMUT AV"}},{"type":"Feature","geometry":{"type":"Point","coordinates":[-118.994894,34.816511]},"properties":{"cartodb_id":55,"id":30054,"state":"MA","city":"Boston","street":"240 BORDER ST"}},{"type":"Feature","geometry":{"type":"Point","coordinates":[-71.063122,42.342783]},"properties":{"cartodb_id":56,"id":30055,"state":"MA","city":"Boston","street":"273 E BERKELEY ST"}},{"type":"Feature","geometry":{"type":"Point","coordinates":[-71.104472,42.365439]},"properties":{"cartodb_id":57,"id":30056,"state":"MA","city":"Boston","street":"26 CENTRAL SQ"}},{"type":"Feature","geometry":{"type":"Point","coordinates":[-104.805976,40.085558]},"properties":{"cartodb_id":58,"id":30057,"state":"MA","city":"Boston","street":"00 HARRISON AV"}},{"type":"Feature","geometry":{"type":"Point","coordinates":[-71.104472,42.365439]},"properties":{"cartodb_id":59,"id":30058,"state":"MA","city":"Boston","street":"26 CENTRAL SQ"}},{"type":"Feature","geometry":{"type":"Point","coordinates":[-71.08114,42.33682]},"properties":{"cartodb_id":60,"id":30059,"state":"MA","city":"Boston","street":" KENDALL ST at LENOX ST"}},{"type":"Feature","geometry":{"type":"Point","coordinates":[-71.09034,42.28333]},"properties":{"cartodb_id":61,"id":30060,"state":"MA","city":"Boston","street":" LESTON ST at MORTON ST"}},{"type":"Feature","geometry":{"type":"Point","coordinates":[-71.08616,42.28373]},"properties":{"cartodb_id":62,"id":30061,"state":"MA","city":"Boston","street":" NORFOLK ST at WILLOWWOOD ST"}},{"type":"Feature","geometry":{"type":"Point","coordinates":[-71.067832,42.31107]},"properties":{"cartodb_id":63,"id":30062,"state":"MA","city":"Boston","street":"25 BELLEVUE ST"}},{"type":"Feature","geometry":{"type":"Point","coordinates":[-71.07184,42.31253]},"properties":{"cartodb_id":64,"id":30063,"state":"MA","city":"Boston","street":" CEYLON ST"}},{"type":"Feature","geometry":{"type":"Point","coordinates":[-71.07184,42.31253]},"properties":{"cartodb_id":65,"id":30064,"state":"MA","city":"Boston","street":" CEYLON ST at QUINCY ST"}},{"type":"Feature","geometry":{"type":"Point","coordinates":[-82.463632,27.944278]},"properties":{"cartodb_id":66,"id":30065,"state":"MA","city":"Boston","street":"1100 HYDE PARK AV"}},{"type":"Feature","geometry":{"type":"Point","coordinates":[-71.061772,42.299512]},"properties":{"cartodb_id":67,"id":30066,"state":"MA","city":"Boston","street":"27 FAULKNER ST"}},{"type":"Feature","geometry":{"type":"Point","coordinates":[-71.0865,42.32384]},"properties":{"cartodb_id":68,"id":30067,"state":"MA","city":"Boston","street":" REGENT ST at ROCK ST"}},{"type":"Feature","geometry":{"type":"Point","coordinates":[-71.072694,42.351189]},"properties":{"cartodb_id":69,"id":30068,"state":"MA","city":"Boston","street":" BOYLSTON ST"}},{"type":"Feature","geometry":{"type":"Point","coordinates":[-71.08889,42.32441]},"properties":{"cartodb_id":70,"id":30069,"state":"MA","city":"Boston","street":"3 CEDAR ST"}},{"type":"Feature","geometry":{"type":"Point","coordinates":[-71.09823,42.32788]},"properties":{"cartodb_id":71,"id":30070,"state":"MA","city":"Boston","street":" TERRACE ST"}},{"type":"Feature","geometry":{"type":"Point","coordinates":[-71.09823,42.32788]},"properties":{"cartodb_id":72,"id":30071,"state":"MA","city":"Boston","street":" TERRACE ST"}},{"type":"Feature","geometry":{"type":"Point","coordinates":[-71.12444,42.28339]},"properties":{"cartodb_id":73,"id":30072,"state":"MA","city":"Boston","street":" CUMMINS HY"}},{"type":"Feature","geometry":{"type":"Point","coordinates":[-72.59282,42.600969]},"properties":{"cartodb_id":74,"id":30073,"state":"MA","city":"Boston","street":"11 SMITH ST"}},{"type":"Feature","geometry":{"type":"Point","coordinates":[-72.59282,42.600969]},"properties":{"cartodb_id":75,"id":30074,"state":"MA","city":"Boston","street":"11 SMITH ST"}},{"type":"Feature","geometry":{"type":"Point","coordinates":[-71.07453,42.32386]},"properties":{"cartodb_id":76,"id":30075,"state":"MA","city":"Boston","street":"2 LEWIS PL"}},{"type":"Feature","geometry":{"type":"Point","coordinates":[-71.10859,42.31786]},"properties":{"cartodb_id":77,"id":30076,"state":"MA","city":"Boston","street":"39 BOYLSTON ST"}},{"type":"Feature","geometry":{"type":"Point","coordinates":[-71.08622,42.295475]},"properties":{"cartodb_id":78,"id":30077,"state":"MA","city":"Boston","street":"38 VESTA RD"}},{"type":"Feature","geometry":{"type":"Point","coordinates":[-71.039601,42.374213]},"properties":{"cartodb_id":79,"id":30078,"state":"MA","city":"Boston","street":" CENTRAL SQ"}},{"type":"Feature","geometry":{"type":"Point","coordinates":[-71.17041,42.27944]},"properties":{"cartodb_id":80,"id":30079,"state":"MA","city":"Boston","street":"1208 VFW PY"}},{"type":"Feature","geometry":{"type":"Point","coordinates":[-71.08504,42.30042]},"properties":{"cartodb_id":81,"id":30080,"state":"MA","city":"Boston","street":"21 MCLELLAN ST"}},{"type":"Feature","geometry":{"type":"Point","coordinates":[-71.061578,42.378311]},"properties":{"cartodb_id":82,"id":30081,"state":"MA","city":"Boston","street":" MERIDIAN ST at TRENTON ST"}},{"type":"Feature","geometry":{"type":"Point","coordinates":[-71.00468,42.3876]},"properties":{"cartodb_id":83,"id":30082,"state":"MA","city":"Boston","street":"1058 BENNINGTON ST"}},{"type":"Feature","geometry":{"type":"Point","coordinates":[-122.032874,37.610386]},"properties":{"cartodb_id":84,"id":30083,"state":"MA","city":"Boston","street":"482 GENEVA AV"}},{"type":"Feature","geometry":{"type":"Point","coordinates":[-71.084,42.28089]},"properties":{"cartodb_id":85,"id":30084,"state":"MA","city":"Boston","street":"890 MORTON ST"}},{"type":"Feature","geometry":{"type":"Point","coordinates":[-71.136561,42.358667]},"properties":{"cartodb_id":86,"id":30085,"state":"MA","city":"Boston","street":" CHURCH ST at ADAMS ST"}},{"type":"Feature","geometry":{"type":"Point","coordinates":[-71.07917,42.30644]},"properties":{"cartodb_id":87,"id":30086,"state":"MA","city":"Boston","street":" GENEVA AV at NORMANDY ST"}},{"type":"Feature","geometry":{"type":"Point","coordinates":[-71.08495,42.30899]},"properties":{"cartodb_id":88,"id":30087,"state":"MA","city":"Boston","street":"46 CHENEY ST"}},{"type":"Feature","geometry":{"type":"Point","coordinates":[-71.055881,42.465904]},"properties":{"cartodb_id":89,"id":30088,"state":"MA","city":"Boston","street":"0 ALBERT ST"}},{"type":"Feature","geometry":{"type":"Point","coordinates":[-71.08772,42.30888]},"properties":{"cartodb_id":90,"id":30089,"state":"MA","city":"Boston","street":"108 ELM HILL AV"}},{"type":"Feature","geometry":{"type":"Point","coordinates":[-75.98675,40.313766]},"properties":{"cartodb_id":91,"id":30090,"state":"MA","city":"Boston","street":" DORCHESTER AV"}},{"type":"Feature","geometry":{"type":"Point","coordinates":[-71.091855,42.312411]},"properties":{"cartodb_id":92,"id":30091,"state":"MA","city":"Boston","street":"57 HOMESTEAD ST"}},{"type":"Feature","geometry":{"type":"Point","coordinates":[-71.0582,42.35727]},"properties":{"cartodb_id":93,"id":30092,"state":"MA","city":"Boston","street":"294 WASHINGTON ST"}},{"type":"Feature","geometry":{"type":"Point","coordinates":[-71.0582,42.35727]},"properties":{"cartodb_id":94,"id":30093,"state":"MA","city":"Boston","street":"294 WASHINGTON ST"}},{"type":"Feature","geometry":{"type":"Point","coordinates":[-71.091499,42.282845]},"properties":{"cartodb_id":95,"id":30094,"state":"MA","city":"Boston","street":"1216 BLUE HILL AV"}},{"type":"Feature","geometry":{"type":"Point","coordinates":[-71.082757,42.290194]},"properties":{"cartodb_id":96,"id":30095,"state":"MA","city":"Boston","street":"100 WESTVIEW ST"}},{"type":"Feature","geometry":{"type":"Point","coordinates":[-82.465295,27.962937]},"properties":{"cartodb_id":97,"id":30096,"state":"MA","city":"Boston","street":"00 MASSACHUSETTS AV"}},{"type":"Feature","geometry":{"type":"Point","coordinates":[-71.071928,42.273432]},"properties":{"cartodb_id":98,"id":30097,"state":"MA","city":"Boston","street":" MORTON ST at NORFOLK ST"}},{"type":"Feature","geometry":{"type":"Point","coordinates":[-71.17008,42.28199]},"properties":{"cartodb_id":99,"id":30098,"state":"MA","city":"Boston","street":" AMES ST at AMESBURY ST"}},{"type":"Feature","geometry":{"type":"Point","coordinates":[-71.07234,42.28276]},"properties":{"cartodb_id":100,"id":30099,"state":"MA","city":"Boston","street":" STOCKTON ST at WASHINGTON ST"}},{"type":"Feature","geometry":{"type":"Point","coordinates":[-71.09097,42.28683]},"properties":{"cartodb_id":101,"id":30100,"state":"MA","city":"Boston","street":" BLUE HILL AV at WELLINGTON HI"}},{"type":"Feature","geometry":{"type":"Point","coordinates":[-71.081737,42.339728]},"properties":{"cartodb_id":102,"id":30101,"state":"MA","city":"Boston","street":"277 NORTHAMPTON ST"}},{"type":"Feature","geometry":{"type":"Point","coordinates":[-71.06864,42.30591]},"properties":{"cartodb_id":103,"id":30102,"state":"MA","city":"Boston","street":"47 NORTON ST"}},{"type":"Feature","geometry":{"type":"Point","coordinates":[-71.16327,42.34885]},"properties":{"cartodb_id":104,"id":30103,"state":"MA","city":"Boston","street":"530 WASHINGTON ST"}},{"type":"Feature","geometry":{"type":"Point","coordinates":[-71.055259,42.334608]},"properties":{"cartodb_id":105,"id":30104,"state":"MA","city":"Boston","street":" OLD COLONY AV"}},{"type":"Feature","geometry":{"type":"Point","coordinates":[-71.07561,42.30273]},"properties":{"cartodb_id":106,"id":30105,"state":"MA","city":"Boston","street":" BOWDOIN ST at GENEVA AV"}},{"type":"Feature","geometry":{"type":"Point","coordinates":[-71.05636,42.3127]},"properties":{"cartodb_id":107,"id":30106,"state":"MA","city":"Boston","street":"51  SAVIN HILL AV"}},{"type":"Feature","geometry":{"type":"Point","coordinates":[-71.0877,42.3076]},"properties":{"cartodb_id":108,"id":30107,"state":"MA","city":"Boston","street":"106  NAZING CT"}},{"type":"Feature","geometry":{"type":"Point","coordinates":[-83.760495,42.270906]},"properties":{"cartodb_id":109,"id":30108,"state":"MA","city":"Boston","street":" MT PLEASANT AV"}},{"type":"Feature","geometry":{"type":"Point","coordinates":[-71.1149,42.26458]},"properties":{"cartodb_id":110,"id":30109,"state":"MA","city":"Boston","street":" WESTMINSTER ST"}},{"type":"Feature","geometry":{"type":"Point","coordinates":[-122.297637,37.89671]},"properties":{"cartodb_id":111,"id":30110,"state":"MA","city":"Boston","street":"514  TALBOT AV"}},{"type":"Feature","geometry":{"type":"Point","coordinates":[-71.0759,42.34056]},"properties":{"cartodb_id":112,"id":30111,"state":"MA","city":"Boston","street":"86 W NEWTON ST"}},{"type":"Feature","geometry":{"type":"Point","coordinates":[-71.05179,42.32982]},"properties":{"cartodb_id":113,"id":30112,"state":"MA","city":"Boston","street":" COLUMBIA RD at HAMILTON ST"}},{"type":"Feature","geometry":{"type":"Point","coordinates":[-71.10699,42.31407]},"properties":{"cartodb_id":114,"id":30113,"state":"MA","city":"Boston","street":"52 LAMARTINE ST"}},{"type":"Feature","geometry":{"type":"Point","coordinates":[-71.08436,42.31476]},"properties":{"cartodb_id":115,"id":30114,"state":"MA","city":"Boston","street":"4 WYOMING ST"}},{"type":"Feature","geometry":{"type":"Point","coordinates":[-71.051646,42.331378]},"properties":{"cartodb_id":116,"id":30115,"state":"MA","city":"Boston","street":" PATTERSON ST at BURKE ST"}},{"type":"Feature","geometry":{"type":"Point","coordinates":[-71.09648,42.33383]},"properties":{"cartodb_id":117,"id":30116,"state":"MA","city":"Boston","street":"REAR 42 HORADAN WY"}},{"type":"Feature","geometry":{"type":"Point","coordinates":[-122.032874,37.610386]},"properties":{"cartodb_id":118,"id":30117,"state":"MA","city":"Boston","street":" GENEVA AV"}},{"type":"Feature","geometry":{"type":"Point","coordinates":[-71.0867,42.29776]},"properties":{"cartodb_id":119,"id":30118,"state":"MA","city":"Boston","street":"788 BLUE HILL AV"}},{"type":"Feature","geometry":{"type":"Point","coordinates":[-71.06275,42.35889]},"properties":{"cartodb_id":120,"id":30119,"state":"MA","city":"Boston","street":" BOWDOIN ST at ADAMS ST"}},{"type":"Feature","geometry":{"type":"Point","coordinates":[-71.084,42.28089]},"properties":{"cartodb_id":121,"id":30120,"state":"MA","city":"Boston","street":"890 MORTON ST"}},{"type":"Feature","geometry":{"type":"Point","coordinates":[-71.06306,42.355223]},"properties":{"cartodb_id":122,"id":30121,"state":"MA","city":"Boston","street":" TREMONT ST at PARK ST"}},{"type":"Feature","geometry":{"type":"Point","coordinates":[-71.050148,42.36327]},"properties":{"cartodb_id":123,"id":30122,"state":"MA","city":"Boston","street":" WOOD AV at RIVER ST"}},{"type":"Feature","geometry":{"type":"Point","coordinates":[-71.536123,43.18368]},"properties":{"cartodb_id":124,"id":30123,"state":"MA","city":"Boston","street":"251 WOOD AV"}},{"type":"Feature","geometry":{"type":"Point","coordinates":[-71.536123,43.18368]},"properties":{"cartodb_id":125,"id":30124,"state":"MA","city":"Boston","street":"206 WOOD AV"}},{"type":"Feature","geometry":{"type":"Point","coordinates":[-71.08243,42.29492]},"properties":{"cartodb_id":126,"id":30125,"state":"MA","city":"Boston","street":" WALES ST at KINGSDALE ST"}},{"type":"Feature","geometry":{"type":"Point","coordinates":[-71.08321,42.30718]},"properties":{"cartodb_id":127,"id":30126,"state":"MA","city":"Boston","street":"10 CASTLEGATE RD"}},{"type":"Feature","geometry":{"type":"Point","coordinates":[-71.08321,42.30718]},"properties":{"cartodb_id":128,"id":30127,"state":"MA","city":"Boston","street":"10 CASTLEGATE RD"}},{"type":"Feature","geometry":{"type":"Point","coordinates":[-71.057466,42.351756]},"properties":{"cartodb_id":129,"id":30128,"state":"MA","city":"Boston","street":"95 SOUTH ST"}},{"type":"Feature","geometry":{"type":"Point","coordinates":[-71.09029,42.31794]},"properties":{"cartodb_id":130,"id":30129,"state":"MA","city":"Boston","street":" TOWNSEND ST at WALNUT ST"}},{"type":"Feature","geometry":{"type":"Point","coordinates":[-71.08377,42.32887]},"properties":{"cartodb_id":131,"id":30130,"state":"MA","city":"Boston","street":" DUDLEY ST at WARREN ST"}},{"type":"Feature","geometry":{"type":"Point","coordinates":[-71.09102,42.29512]},"properties":{"cartodb_id":132,"id":30131,"state":"MA","city":"Boston","street":" BLUE HILL AV at FRANKLIN ST"}},{"type":"Feature","geometry":{"type":"Point","coordinates":[-71.08139,42.31639]},"properties":{"cartodb_id":133,"id":30132,"state":"MA","city":"Boston","street":" QUINCY ST at TUPELO ST"}},{"type":"Feature","geometry":{"type":"Point","coordinates":[-71.05179,42.32982]},"properties":{"cartodb_id":134,"id":30133,"state":"MA","city":"Boston","street":" COLUMBIA RD at WASHINGTON ST"}},{"type":"Feature","geometry":{"type":"Point","coordinates":[-71.05534,42.35925]},"properties":{"cartodb_id":135,"id":30134,"state":"MA","city":"Boston","street":"92 STATE ST"}},{"type":"Feature","geometry":{"type":"Point","coordinates":[-71.080883,42.327563]},"properties":{"cartodb_id":136,"id":30135,"state":"MA","city":"Boston","street":" GREENVILLE ST"}},{"type":"Feature","geometry":{"type":"Point","coordinates":[-71.07717,42.28535]},"properties":{"cartodb_id":137,"id":30136,"state":"MA","city":"Boston","street":" EDSON ST at NORFOLK ST"}},{"type":"Feature","geometry":{"type":"Point","coordinates":[-71.068584,42.311908]},"properties":{"cartodb_id":138,"id":30137,"state":"MA","city":"Boston","street":" BELLEVUE ST"}},{"type":"Feature","geometry":{"type":"Point","coordinates":[-71.056166,42.280761]},"properties":{"cartodb_id":139,"id":30138,"state":"MA","city":"Boston","street":"00 EDNA RD"}},{"type":"Feature","geometry":{"type":"Point","coordinates":[-71.056166,42.280761]},"properties":{"cartodb_id":140,"id":30139,"state":"MA","city":"Boston","street":"00  EDNA RD"}},{"type":"Feature","geometry":{"type":"Point","coordinates":[-71.057813,42.377486]},"properties":{"cartodb_id":141,"id":30140,"state":"MA","city":"Boston","street":"0 BUNKER HILL ST at POLK ST"}},{"type":"Feature","geometry":{"type":"Point","coordinates":[-71.09405,42.32431]},"properties":{"cartodb_id":142,"id":30141,"state":"MA","city":"Boston","street":"64  BEECH GLEN ST"}},{"type":"Feature","geometry":{"type":"Point","coordinates":[-71.038866,42.369432]},"properties":{"cartodb_id":143,"id":30142,"state":"MA","city":"Boston","street":" MAVERICK SQ"}},{"type":"Feature","geometry":{"type":"Point","coordinates":[-71.06974,42.30058]},"properties":{"cartodb_id":144,"id":30143,"state":"MA","city":"Boston","street":"60 WESTVILLE ST"}},{"type":"Feature","geometry":{"type":"Point","coordinates":[-78.877858,42.904096]},"properties":{"cartodb_id":145,"id":30144,"state":"MA","city":"Boston","street":"00 SHAWMUT AV"}},{"type":"Feature","geometry":{"type":"Point","coordinates":[-71.038866,42.369432]},"properties":{"cartodb_id":146,"id":30145,"state":"MA","city":"Boston","street":" MAVERICK SQ"}},{"type":"Feature","geometry":{"type":"Point","coordinates":[-71.14225,42.36084]},"properties":{"cartodb_id":147,"id":30146,"state":"MA","city":"Boston","street":"50 WAVERLY ST"}},{"type":"Feature","geometry":{"type":"Point","coordinates":[-71.038866,42.369432]},"properties":{"cartodb_id":148,"id":30147,"state":"MA","city":"Boston","street":" MAVERICK SQ"}},{"type":"Feature","geometry":{"type":"Point","coordinates":[-71.101238,42.32309]},"properties":{"cartodb_id":149,"id":30148,"state":"MA","city":"Boston","street":"279 CENTRE ST"}},{"type":"Feature","geometry":{"type":"Point","coordinates":[-71.101238,42.32309]},"properties":{"cartodb_id":150,"id":30149,"state":"MA","city":"Boston","street":"279 CENTRE ST"}},{"type":"Feature","geometry":{"type":"Point","coordinates":[-71.09164,42.2826]},"properties":{"cartodb_id":151,"id":30150,"state":"MA","city":"Boston","street":"1220 BLUE HILL AV"}},{"type":"Feature","geometry":{"type":"Point","coordinates":[-71.095039,42.288202]},"properties":{"cartodb_id":152,"id":30151,"state":"MA","city":"Boston","street":" HARVARD ST at W MAIN ST"}},{"type":"Feature","geometry":{"type":"Point","coordinates":[-71.09164,42.2826]},"properties":{"cartodb_id":153,"id":30152,"state":"MA","city":"Boston","street":"1220 BLUE HILL AV"}},{"type":"Feature","geometry":{"type":"Point","coordinates":[-71.09164,42.2826]},"properties":{"cartodb_id":154,"id":30153,"state":"MA","city":"Boston","street":"1220 BLUE HILL AV"}},{"type":"Feature","geometry":{"type":"Point","coordinates":[-71.07413,42.31793]},"properties":{"cartodb_id":155,"id":30154,"state":"MA","city":"Boston","street":"1 HARTFORD ST"}},{"type":"Feature","geometry":{"type":"Point","coordinates":[-71.09097,42.28683]},"properties":{"cartodb_id":156,"id":30155,"state":"MA","city":"Boston","street":" BLUE HILL AV at TALBOT AV"}},{"type":"Feature","geometry":{"type":"Point","coordinates":[-71.08106,42.29613]},"properties":{"cartodb_id":157,"id":30156,"state":"MA","city":"Boston","street":"148 HARVARD ST"}},{"type":"Feature","geometry":{"type":"Point","coordinates":[-71.0759,42.34233]},"properties":{"cartodb_id":158,"id":30157,"state":"MA","city":"Boston","street":" W BROOKLINE ST at SAN JUAN ST"}},{"type":"Feature","geometry":{"type":"Point","coordinates":[-71.091749,42.296043]},"properties":{"cartodb_id":159,"id":30158,"state":"MA","city":"Boston","street":"113 SHANDON RD"}},{"type":"Feature","geometry":{"type":"Point","coordinates":[-71.08754,42.2973]},"properties":{"cartodb_id":160,"id":30159,"state":"MA","city":"Boston","street":"799 BLUE HILL AV"}},{"type":"Feature","geometry":{"type":"Point","coordinates":[-71.10256,42.27369]},"properties":{"cartodb_id":161,"id":30160,"state":"MA","city":"Boston","street":"197 ITASCA ST"}},{"type":"Feature","geometry":{"type":"Point","coordinates":[-71.08292,42.28187]},"properties":{"cartodb_id":162,"id":30161,"state":"MA","city":"Boston","street":" EVANS ST at NELSON ST"}},{"type":"Feature","geometry":{"type":"Point","coordinates":[-71.091499,42.282845]},"properties":{"cartodb_id":163,"id":30162,"state":"MA","city":"Boston","street":"1216 BLUE HILL AV"}},{"type":"Feature","geometry":{"type":"Point","coordinates":[-71.09287,42.28345]},"properties":{"cartodb_id":164,"id":30163,"state":"MA","city":"Boston","street":" BLUE HILL AV at GOODALE RD"}},{"type":"Feature","geometry":{"type":"Point","coordinates":[-85.465041,35.223888]},"properties":{"cartodb_id":165,"id":30164,"state":"MA","city":"Boston","street":" MT CALVARY RD"}},{"type":"Feature","geometry":{"type":"Point","coordinates":[-71.11888,42.29321]},"properties":{"cartodb_id":166,"id":30165,"state":"MA","city":"Boston","street":"80 BROOKWAY RD"}},{"type":"Feature","geometry":{"type":"Point","coordinates":[-71.787816,42.360881]},"properties":{"cartodb_id":167,"id":30166,"state":"MA","city":"Boston","street":"24 BOWEN ST"}},{"type":"Feature","geometry":{"type":"Point","coordinates":[-71.12848,42.27261]},"properties":{"cartodb_id":168,"id":30167,"state":"MA","city":"Boston","street":"587 BEECH ST"}},{"type":"Feature","geometry":{"type":"Point","coordinates":[-71.08763,42.33401]},"properties":{"cartodb_id":169,"id":30168,"state":"MA","city":"Boston","street":" RUGGLES ST at LEON ST"}},{"type":"Feature","geometry":{"type":"Point","coordinates":[-71.067162,42.377404]},"properties":{"cartodb_id":170,"id":30169,"state":"MA","city":"Boston","street":"274 MAIN ST"}},{"type":"Feature","geometry":{"type":"Point","coordinates":[-71.07464,42.31971]},"properties":{"cartodb_id":171,"id":30170,"state":"MA","city":"Boston","street":"0 HOWARD AV at DEAN ST"}},{"type":"Feature","geometry":{"type":"Point","coordinates":[-71.07464,42.31971]},"properties":{"cartodb_id":172,"id":30171,"state":"MA","city":"Boston","street":"0 HOWARD AV at DEAN ST"}},{"type":"Feature","geometry":{"type":"Point","coordinates":[-71.09415,42.33409]},"properties":{"cartodb_id":173,"id":30172,"state":"MA","city":"Boston","street":" PRENTISS ST at PARKER ST"}},{"type":"Feature","geometry":{"type":"Point","coordinates":[-122.032874,37.610386]},"properties":{"cartodb_id":174,"id":30173,"state":"MA","city":"Boston","street":"252 GENEVA AV"}},{"type":"Feature","geometry":{"type":"Point","coordinates":[-71.1043,42.32443]},"properties":{"cartodb_id":175,"id":30174,"state":"MA","city":"Boston","street":"43 WALDEN ST"}},{"type":"Feature","geometry":{"type":"Point","coordinates":[-71.0726,42.32114]},"properties":{"cartodb_id":176,"id":30175,"state":"MA","city":"Boston","street":" DUDLEY ST at W COTTAGE ST"}},{"type":"Feature","geometry":{"type":"Point","coordinates":[-71.08133,42.2781]},"properties":{"cartodb_id":177,"id":30176,"state":"MA","city":"Boston","street":" WOODRUFF WY at WOODBOLE AV"}},{"type":"Feature","geometry":{"type":"Point","coordinates":[-71.08133,42.2781]},"properties":{"cartodb_id":178,"id":30177,"state":"MA","city":"Boston","street":" WOODRUFF WY at WOODBOLE AV"}},{"type":"Feature","geometry":{"type":"Point","coordinates":[-71.08133,42.2781]},"properties":{"cartodb_id":179,"id":30178,"state":"MA","city":"Boston","street":" WOODBOLE AV at WOODRUFF WY"}},{"type":"Feature","geometry":{"type":"Point","coordinates":[-71.08573,42.35213]},"properties":{"cartodb_id":180,"id":30179,"state":"MA","city":"Boston","street":"404 BEACON ST"}},{"type":"Feature","geometry":{"type":"Point","coordinates":[-71.084858,42.3094]},"properties":{"cartodb_id":181,"id":30180,"state":"MA","city":"Boston","street":" HARTWELL ST at CHENEY ST"}},{"type":"Feature","geometry":{"type":"Point","coordinates":[-71.069679,42.379002]},"properties":{"cartodb_id":182,"id":30181,"state":"MA","city":"Boston","street":" ESSEX ST at HARRISON ST"}},{"type":"Feature","geometry":{"type":"Point","coordinates":[-71.069679,42.379002]},"properties":{"cartodb_id":183,"id":30182,"state":"MA","city":"Boston","street":" ESSEX ST at HARRISON ST"}},{"type":"Feature","geometry":{"type":"Point","coordinates":[-71.06275,42.35889]},"properties":{"cartodb_id":184,"id":30183,"state":"MA","city":"Boston","street":"280 BOWDOIN ST"}},{"type":"Feature","geometry":{"type":"Point","coordinates":[-71.069679,42.379002]},"properties":{"cartodb_id":185,"id":30184,"state":"MA","city":"Boston","street":" ESSEX ST at HARRISON ST"}},{"type":"Feature","geometry":{"type":"Point","coordinates":[-71.100571,42.320936]},"properties":{"cartodb_id":186,"id":30185,"state":"MA","city":"Boston","street":" AMORY ST at COLUMBUS AV"}},{"type":"Feature","geometry":{"type":"Point","coordinates":[-71.10018,42.32561]},"properties":{"cartodb_id":187,"id":30186,"state":"MA","city":"Boston","street":"926 PARKER ST"}},{"type":"Feature","geometry":{"type":"Point","coordinates":[-71.10075,42.32551]},"properties":{"cartodb_id":188,"id":30187,"state":"MA","city":"Boston","street":"925 PARKER ST"}},{"type":"Feature","geometry":{"type":"Point","coordinates":[-71.07747,42.28859]},"properties":{"cartodb_id":189,"id":30188,"state":"MA","city":"Boston","street":" SOUTHERN AV at FERNDALE ST"}},{"type":"Feature","geometry":{"type":"Point","coordinates":[-71.139231,42.356544]},"properties":{"cartodb_id":190,"id":30189,"state":"MA","city":"Boston","street":"60 EVERETT ST"}},{"type":"Feature","geometry":{"type":"Point","coordinates":[-71.07184,42.31253]},"properties":{"cartodb_id":191,"id":30190,"state":"MA","city":"Boston","street":" CEYLON ST"}},{"type":"Feature","geometry":{"type":"Point","coordinates":[-71.07733,42.31458]},"properties":{"cartodb_id":192,"id":30191,"state":"MA","city":"Boston","street":"0 DACIA ST at WOODCLIFF ST"}},{"type":"Feature","geometry":{"type":"Point","coordinates":[-71.085455,42.331767]},"properties":{"cartodb_id":193,"id":30192,"state":"MA","city":"Boston","street":"146 DEWITT DR"}},{"type":"Feature","geometry":{"type":"Point","coordinates":[-74.560184,39.957955]},"properties":{"cartodb_id":194,"id":30193,"state":"MA","city":"Boston","street":" WALNUT AV"}},{"type":"Feature","geometry":{"type":"Point","coordinates":[-71.13136,42.25241]},"properties":{"cartodb_id":195,"id":30194,"state":"MA","city":"Boston","street":" RESERVATION RD"}},{"type":"Feature","geometry":{"type":"Point","coordinates":[-71.0861,42.31003]},"properties":{"cartodb_id":196,"id":30195,"state":"MA","city":"Boston","street":"71 CHENEY ST"}},{"type":"Feature","geometry":{"type":"Point","coordinates":[-71.06501,42.31856]},"properties":{"cartodb_id":197,"id":30196,"state":"MA","city":"Boston","street":"0 RAMSEY ST at HAMLET ST"}},{"type":"Feature","geometry":{"type":"Point","coordinates":[-74.317557,40.623645]},"properties":{"cartodb_id":198,"id":30197,"state":"MA","city":"Boston","street":"76 HUTCHINSON ST"}},{"type":"Feature","geometry":{"type":"Point","coordinates":[-71.07123,42.2835]},"properties":{"cartodb_id":199,"id":30198,"state":"MA","city":"Boston","street":"800 WASHINGTON ST"}},{"type":"Feature","geometry":{"type":"Point","coordinates":[-71.09097,42.28683]},"properties":{"cartodb_id":200,"id":30199,"state":"MA","city":"Boston","street":"0 BLUE HILL AV at MORELAND ST"}},{"type":"Feature","geometry":{"type":"Point","coordinates":[-71.09491,42.28415]},"properties":{"cartodb_id":201,"id":30200,"state":"MA","city":"Boston","street":"80 GOODALE RD"}},{"type":"Feature","geometry":{"type":"Point","coordinates":[-71.09057,42.31077]},"properties":{"cartodb_id":202,"id":30201,"state":"MA","city":"Boston","street":"76 HUTCHINGS ST"}},{"type":"Feature","geometry":{"type":"Point","coordinates":[-71.09444,42.33466]},"properties":{"cartodb_id":203,"id":30202,"state":"MA","city":"Boston","street":"80 ANNUNCIATION RD"}},{"type":"Feature","geometry":{"type":"Point","coordinates":[-71.07434,42.30461]},"properties":{"cartodb_id":204,"id":30203,"state":"MA","city":"Boston","street":" GENEVA ST at OLNEY ST"}},{"type":"Feature","geometry":{"type":"Point","coordinates":[-71.05976,42.30508]},"properties":{"cartodb_id":205,"id":30204,"state":"MA","city":"Boston","street":" ADAMS ST at LEEDSVILLE ST"}},{"type":"Feature","geometry":{"type":"Point","coordinates":[-71.08616,42.28373]},"properties":{"cartodb_id":206,"id":30205,"state":"MA","city":"Boston","street":" WILLOWWOOD ST at DUMAS ST"}},{"type":"Feature","geometry":{"type":"Point","coordinates":[-71.10993,42.28648]},"properties":{"cartodb_id":207,"id":30206,"state":"MA","city":"Boston","street":" CANTERBURY ST"}},{"type":"Feature","geometry":{"type":"Point","coordinates":[-71.09097,42.28683]},"properties":{"cartodb_id":208,"id":30207,"state":"MA","city":"Boston","street":" BLUE HILL AV at MCLELLAN ST"}},{"type":"Feature","geometry":{"type":"Point","coordinates":[-71.084946,42.333402]},"properties":{"cartodb_id":209,"id":30208,"state":"MA","city":"Boston","street":"0 DEWITT DR at RUGGLES ST"}},{"type":"Feature","geometry":{"type":"Point","coordinates":[-71.09097,42.28683]},"properties":{"cartodb_id":210,"id":30209,"state":"MA","city":"Boston","street":"0 BLUE HILL AV at CHENEY ST"}},{"type":"Feature","geometry":{"type":"Point","coordinates":[-71.055881,42.465904]},"properties":{"cartodb_id":211,"id":30210,"state":"MA","city":"Boston","street":"0 ALBERT ST"}},{"type":"Feature","geometry":{"type":"Point","coordinates":[-71.061736,42.356431]},"properties":{"cartodb_id":212,"id":30211,"state":"MA","city":"Boston","street":"125 TREMONT ST"}},{"type":"Feature","geometry":{"type":"Point","coordinates":[-71.10244,42.2676]},"properties":{"cartodb_id":213,"id":30212,"state":"MA","city":"Boston","street":" GREENFIELD RD"}},{"type":"Feature","geometry":{"type":"Point","coordinates":[-71.020733,42.382611]},"properties":{"cartodb_id":214,"id":30213,"state":"MA","city":"Boston","street":" SARATOGA ST at MARION ST"}},{"type":"Feature","geometry":{"type":"Point","coordinates":[-71.020733,42.382611]},"properties":{"cartodb_id":215,"id":30214,"state":"MA","city":"Boston","street":" SARATOGA ST at MARION ST"}},{"type":"Feature","geometry":{"type":"Point","coordinates":[-71.020733,42.382611]},"properties":{"cartodb_id":216,"id":30215,"state":"MA","city":"Boston","street":" SARATOGA ST at MARION ST"}},{"type":"Feature","geometry":{"type":"Point","coordinates":[-71.217979,42.312026]},"properties":{"cartodb_id":217,"id":30216,"state":"MA","city":"Boston","street":"5 CHENEY ST"}},{"type":"Feature","geometry":{"type":"Point","coordinates":[-71.113508,42.306133]},"properties":{"cartodb_id":218,"id":30217,"state":"MA","city":"Boston","street":" SOUTH ST at MCBRIDE ST"}},{"type":"Feature","geometry":{"type":"Point","coordinates":[-71.06306,42.355223]},"properties":{"cartodb_id":219,"id":30218,"state":"MA","city":"Boston","street":"00 TREMONT ST"}},{"type":"Feature","geometry":{"type":"Point","coordinates":[-71.058595,42.379078]},"properties":{"cartodb_id":220,"id":30219,"state":"MA","city":"Boston","street":"162 MEDFORD ST"}},{"type":"Feature","geometry":{"type":"Point","coordinates":[-71.03931,42.3727]},"properties":{"cartodb_id":221,"id":30220,"state":"MA","city":"Boston","street":"100 MERIDIAN ST"}},{"type":"Feature","geometry":{"type":"Point","coordinates":[-71.058595,42.379078]},"properties":{"cartodb_id":222,"id":30221,"state":"MA","city":"Boston","street":"162 MEDFORD ST"}},{"type":"Feature","geometry":{"type":"Point","coordinates":[-71.075567,42.299155]},"properties":{"cartodb_id":223,"id":30222,"state":"MA","city":"Boston","street":" HARVARD ST at FRANKLIN HILL A"}},{"type":"Feature","geometry":{"type":"Point","coordinates":[-71.075414,42.271081]},"properties":{"cartodb_id":224,"id":30223,"state":"MA","city":"Boston","street":" RIVER ST"}},{"type":"Feature","geometry":{"type":"Point","coordinates":[-71.052428,42.340683]},"properties":{"cartodb_id":225,"id":30224,"state":"MA","city":"Boston","street":" SCHOOL ST at WASHINGTON ST"}},{"type":"Feature","geometry":{"type":"Point","coordinates":[-71.04927,42.28425]},"properties":{"cartodb_id":226,"id":30225,"state":"MA","city":"Boston","street":" STOCK ST"}},{"type":"Feature","geometry":{"type":"Point","coordinates":[-71.077713,42.317585]},"properties":{"cartodb_id":227,"id":30226,"state":"MA","city":"Boston","street":"206  BLUE HILL AV"}},{"type":"Feature","geometry":{"type":"Point","coordinates":[-71.076707,42.326802]},"properties":{"cartodb_id":228,"id":30227,"state":"MA","city":"Boston","street":"339 DUDLEY ST"}},{"type":"Feature","geometry":{"type":"Point","coordinates":[-71.09097,42.28683]},"properties":{"cartodb_id":229,"id":30228,"state":"MA","city":"Boston","street":" BLUE HILL AV at WELLINGTON HI"}},{"type":"Feature","geometry":{"type":"Point","coordinates":[-71.06308,42.36427]},"properties":{"cartodb_id":230,"id":30229,"state":"MA","city":"Boston","street":"151 MERRIMAC ST"}},{"type":"Feature","geometry":{"type":"Point","coordinates":[-71.077748,42.317261]},"properties":{"cartodb_id":231,"id":30230,"state":"MA","city":"Boston","street":"210 BLUE HILL AV"}},{"type":"Feature","geometry":{"type":"Point","coordinates":[-71.03866,42.380393]},"properties":{"cartodb_id":232,"id":30231,"state":"MA","city":"Boston","street":"14 MARION ST"}},{"type":"Feature","geometry":{"type":"Point","coordinates":[-71.09782,42.32864]},"properties":{"cartodb_id":233,"id":30232,"state":"MA","city":"Boston","street":"100 TERRACE ST"}},{"type":"Feature","geometry":{"type":"Point","coordinates":[-71.0879,42.33352]},"properties":{"cartodb_id":234,"id":30233,"state":"MA","city":"Boston","street":"175 CABOT ST"}},{"type":"Feature","geometry":{"type":"Point","coordinates":[-71.06298,42.29688]},"properties":{"cartodb_id":235,"id":30234,"state":"MA","city":"Boston","street":" BOURNESIDE ST at PARK ST"}},{"type":"Feature","geometry":{"type":"Point","coordinates":[-122.297637,37.89671]},"properties":{"cartodb_id":236,"id":30235,"state":"MA","city":"Boston","street":"514  TALBOT AV"}},{"type":"Feature","geometry":{"type":"Point","coordinates":[-71.082924,42.338252]},"properties":{"cartodb_id":237,"id":30236,"state":"MA","city":"Boston","street":"00 DOUGLAS PK"}},{"type":"Feature","geometry":{"type":"Point","coordinates":[-71.129859,42.400316]},"properties":{"cartodb_id":238,"id":30237,"state":"MA","city":"Boston","street":"86 NEWBURY ST"}},{"type":"Feature","geometry":{"type":"Point","coordinates":[-71.059998,42.371948]},"properties":{"cartodb_id":239,"id":30238,"state":"MA","city":"Boston","street":"0 WARREN ST"}},{"type":"Feature","geometry":{"type":"Point","coordinates":[-122.1524,37.744155]},"properties":{"cartodb_id":240,"id":30239,"state":"MA","city":"Boston","street":"32 FISHER AV"}},{"type":"Feature","geometry":{"type":"Point","coordinates":[-71.09654,42.33231]},"properties":{"cartodb_id":241,"id":30240,"state":"MA","city":"Boston","street":"676 PARKER ST"}},{"type":"Feature","geometry":{"type":"Point","coordinates":[-71.09795,42.31453]},"properties":{"cartodb_id":242,"id":30241,"state":"MA","city":"Boston","street":"21 DIXWELL ST"}},{"type":"Feature","geometry":{"type":"Point","coordinates":[-71.0635,42.31005]},"properties":{"cartodb_id":243,"id":30242,"state":"MA","city":"Boston","street":" CAMERON ST at TOVAR ST"}},{"type":"Feature","geometry":{"type":"Point","coordinates":[-71.129859,42.400316]},"properties":{"cartodb_id":244,"id":30243,"state":"MA","city":"Boston","street":"86 NEWBURY ST"}},{"type":"Feature","geometry":{"type":"Point","coordinates":[-71.074187,42.35123]},"properties":{"cartodb_id":245,"id":30244,"state":"MA","city":"Boston","street":"82 NEWBURY ST"}},{"type":"Feature","geometry":{"type":"Point","coordinates":[-71.07927,42.29255]},"properties":{"cartodb_id":246,"id":30245,"state":"MA","city":"Boston","street":" TALBOT AV at HARVARD ST"}},{"type":"Feature","geometry":{"type":"Point","coordinates":[-71.09045,42.28963]},"properties":{"cartodb_id":247,"id":30246,"state":"MA","city":"Boston","street":" HARVARD AV at FABYAN ST"}},{"type":"Feature","geometry":{"type":"Point","coordinates":[-71.08612,42.32232]},"properties":{"cartodb_id":248,"id":30247,"state":"MA","city":"Boston","street":" WAKULLAH ST at HEWES ST"}},{"type":"Feature","geometry":{"type":"Point","coordinates":[-71.07703,42.28742]},"properties":{"cartodb_id":249,"id":30248,"state":"MA","city":"Boston","street":" WHITMAN ST at NORFOLK ST"}},{"type":"Feature","geometry":{"type":"Point","coordinates":[-71.09097,42.28683]},"properties":{"cartodb_id":250,"id":30249,"state":"MA","city":"Boston","street":" BLUE HILL AV at CRESTON ST"}},{"type":"Feature","geometry":{"type":"Point","coordinates":[-71.08175,42.31242]},"properties":{"cartodb_id":251,"id":30250,"state":"MA","city":"Boston","street":"10 INTERVALE ST"}},{"type":"Feature","geometry":{"type":"Point","coordinates":[-71.076247,42.298698]},"properties":{"cartodb_id":252,"id":30251,"state":"MA","city":"Boston","street":" RIPLEY RD"}},{"type":"Feature","geometry":{"type":"Point","coordinates":[-71.06935,42.35657]},"properties":{"cartodb_id":253,"id":30252,"state":"MA","city":"Boston","street":"11 CHARLES ST"}},{"type":"Feature","geometry":{"type":"Point","coordinates":[-71.09203,42.33565]},"properties":{"cartodb_id":254,"id":30253,"state":"MA","city":"Boston","street":"0 ANNUNCIATION RD"}},{"type":"Feature","geometry":{"type":"Point","coordinates":[-71.536123,43.18368]},"properties":{"cartodb_id":255,"id":30254,"state":"MA","city":"Boston","street":"206 WOOD AV"}},{"type":"Feature","geometry":{"type":"Point","coordinates":[-71.07434,42.30461]},"properties":{"cartodb_id":256,"id":30255,"state":"MA","city":"Boston","street":" OLNEY ST"}},{"type":"Feature","geometry":{"type":"Point","coordinates":[-71.064231,42.362733]},"properties":{"cartodb_id":257,"id":30256,"state":"MA","city":"Boston","street":" MORTON ST at STANIFORD ST"}},{"type":"Feature","geometry":{"type":"Point","coordinates":[-71.06864,42.30591]},"properties":{"cartodb_id":258,"id":30257,"state":"MA","city":"Boston","street":"47 NORTON ST"}},{"type":"Feature","geometry":{"type":"Point","coordinates":[-71.145768,42.346055]},"properties":{"cartodb_id":259,"id":30258,"state":"MA","city":"Boston","street":"149 WASHINGTON ST"}},{"type":"Feature","geometry":{"type":"Point","coordinates":[-71.08826,42.29003]},"properties":{"cartodb_id":260,"id":30259,"state":"MA","city":"Boston","street":" STRATTON ST at BLUE HILL AV"}},{"type":"Feature","geometry":{"type":"Point","coordinates":[-71.02544,42.38028]},"properties":{"cartodb_id":261,"id":30260,"state":"MA","city":"Boston","street":" CHELSEA ST at NEPTUNE RD"}},{"type":"Feature","geometry":{"type":"Point","coordinates":[-70.368617,41.659798]},"properties":{"cartodb_id":262,"id":30261,"state":"MA","city":"Boston","street":" AMES WY"}},{"type":"Feature","geometry":{"type":"Point","coordinates":[-71.05562,42.33913]},"properties":{"cartodb_id":263,"id":30262,"state":"MA","city":"Boston","street":"0 B ST at W BROADWAY"}},{"type":"Feature","geometry":{"type":"Point","coordinates":[-81.325524,28.94768]},"properties":{"cartodb_id":264,"id":30263,"state":"MA","city":"Boston","street":"155 CHESTNUT AV"}},{"type":"Feature","geometry":{"type":"Point","coordinates":[-71.1199,42.29272]},"properties":{"cartodb_id":265,"id":30264,"state":"MA","city":"Boston","street":" BROOKWAY RD at WASHINGTON ST"}},{"type":"Feature","geometry":{"type":"Point","coordinates":[-71.06006,42.3114]},"properties":{"cartodb_id":266,"id":30265,"state":"MA","city":"Boston","street":"0 DOWNER AV at BAILEY ST"}},{"type":"Feature","geometry":{"type":"Point","coordinates":[-75.98675,40.313766]},"properties":{"cartodb_id":267,"id":30266,"state":"MA","city":"Boston","street":" DORCHESTER AV"}},{"type":"Feature","geometry":{"type":"Point","coordinates":[-80.006224,40.428147]},"properties":{"cartodb_id":268,"id":30267,"state":"MA","city":"Boston","street":"75 WYOMING ST"}},{"type":"Feature","geometry":{"type":"Point","coordinates":[-71.072694,42.351189]},"properties":{"cartodb_id":269,"id":30268,"state":"MA","city":"Boston","street":" BOYLSTON ST"}},{"type":"Feature","geometry":{"type":"Point","coordinates":[-71.078446,42.29752]},"properties":{"cartodb_id":270,"id":30269,"state":"MA","city":"Boston","street":" NORWELL ST at HARVARD ST"}},{"type":"Feature","geometry":{"type":"Point","coordinates":[-71.078446,42.29752]},"properties":{"cartodb_id":271,"id":30270,"state":"MA","city":"Boston","street":" NORWELL ST at HARVARD ST"}},{"type":"Feature","geometry":{"type":"Point","coordinates":[-71.076278,42.341737]},"properties":{"cartodb_id":272,"id":30271,"state":"MA","city":"Boston","street":" TREMONT ST at MASSACHUSETTS A"}},{"type":"Feature","geometry":{"type":"Point","coordinates":[-71.15436,42.29134]},"properties":{"cartodb_id":273,"id":30272,"state":"MA","city":"Boston","street":"138 REDLANDS RD"}},{"type":"Feature","geometry":{"type":"Point","coordinates":[-71.084858,42.3094]},"properties":{"cartodb_id":274,"id":30273,"state":"MA","city":"Boston","street":"48 CHENEY ST"}},{"type":"Feature","geometry":{"type":"Point","coordinates":[-82.463632,27.944278]},"properties":{"cartodb_id":275,"id":30274,"state":"MA","city":"Boston","street":"942 HYDE PARK AV"}},{"type":"Feature","geometry":{"type":"Point","coordinates":[-71.08377,42.32887]},"properties":{"cartodb_id":276,"id":30275,"state":"MA","city":"Boston","street":" DUDLEY ST"}},{"type":"Feature","geometry":{"type":"Point","coordinates":[-71.07127,42.32161]},"properties":{"cartodb_id":277,"id":30276,"state":"MA","city":"Boston","street":" COLUMBIA RD at E COTTAGE ST"}},{"type":"Feature","geometry":{"type":"Point","coordinates":[-71.09229,42.27855]},"properties":{"cartodb_id":278,"id":30277,"state":"MA","city":"Boston","street":" NORFOLK ST at FESSENDEN ST"}},{"type":"Feature","geometry":{"type":"Point","coordinates":[-71.09097,42.28683]},"properties":{"cartodb_id":279,"id":30278,"state":"MA","city":"Boston","street":" BLUE HILL AV at LAWRENCE ST"}},{"type":"Feature","geometry":{"type":"Point","coordinates":[-71.08324,42.29807]},"properties":{"cartodb_id":280,"id":30279,"state":"MA","city":"Boston","street":" BICKNELL ST at HARVARD ST"}},{"type":"Feature","geometry":{"type":"Point","coordinates":[-71.08381,42.3216]},"properties":{"cartodb_id":281,"id":30280,"state":"MA","city":"Boston","street":"00 DALE ST at ROCKLAND AV"}},{"type":"Feature","geometry":{"type":"Point","coordinates":[-71.07965,42.3091]},"properties":{"cartodb_id":282,"id":30281,"state":"MA","city":"Boston","street":" BLUE HILL AV at STANWOOD ST"}},{"type":"Feature","geometry":{"type":"Point","coordinates":[-71.09102,42.29512]},"properties":{"cartodb_id":283,"id":30282,"state":"MA","city":"Boston","street":" FRANKLIN HILL AV at AMERICAN"}},{"type":"Feature","geometry":{"type":"Point","coordinates":[-75.98675,40.313766]},"properties":{"cartodb_id":284,"id":30283,"state":"MA","city":"Boston","street":" DORCHESTER AV"}},{"type":"Feature","geometry":{"type":"Point","coordinates":[-71.07837,42.283]},"properties":{"cartodb_id":285,"id":30284,"state":"MA","city":"Boston","street":" NORFOLK ST at STANTON ST"}},{"type":"Feature","geometry":{"type":"Point","coordinates":[-71.058571,42.311529]},"properties":{"cartodb_id":286,"id":30285,"state":"MA","city":"Boston","street":"35  DEER ST"}},{"type":"Feature","geometry":{"type":"Point","coordinates":[-71.06004,42.29517]},"properties":{"cartodb_id":287,"id":30286,"state":"MA","city":"Boston","street":" DIX ST"}},{"type":"Feature","geometry":{"type":"Point","coordinates":[-71.094803,42.314851]},"properties":{"cartodb_id":288,"id":30287,"state":"MA","city":"Boston","street":"72 WALNUT PK"}},{"type":"Feature","geometry":{"type":"Point","coordinates":[-71.08442,42.31021]},"properties":{"cartodb_id":289,"id":30288,"state":"MA","city":"Boston","street":"53 GEORGIA ST"}},{"type":"Feature","geometry":{"type":"Point","coordinates":[-71.05179,42.32982]},"properties":{"cartodb_id":290,"id":30289,"state":"MA","city":"Boston","street":" COLUMBIA RD at BIRD ST"}},{"type":"Feature","geometry":{"type":"Point","coordinates":[-71.05179,42.32982]},"properties":{"cartodb_id":291,"id":30290,"state":"MA","city":"Boston","street":" COLUMBIA RD at BIRD ST"}},{"type":"Feature","geometry":{"type":"Point","coordinates":[-71.052428,42.340683]},"properties":{"cartodb_id":292,"id":30291,"state":"MA","city":"Boston","street":" WALNUT at SCHOOL ST"}},{"type":"Feature","geometry":{"type":"Point","coordinates":[-71.07183,42.2874]},"properties":{"cartodb_id":293,"id":30292,"state":"MA","city":"Boston","street":"0 WASHINGTON ST at TORREY ST"}},{"type":"Feature","geometry":{"type":"Point","coordinates":[-71.09317,42.33034]},"properties":{"cartodb_id":294,"id":30293,"state":"MA","city":"Boston","street":"0 ROXBURY ST"}},{"type":"Feature","geometry":{"type":"Point","coordinates":[-71.0398,42.382862]},"properties":{"cartodb_id":295,"id":30294,"state":"MA","city":"Boston","street":"470 MERIDIAN ST"}},{"type":"Feature","geometry":{"type":"Point","coordinates":[-71.06786,42.3798]},"properties":{"cartodb_id":296,"id":30295,"state":"MA","city":"Boston","street":" LUDLOW ST"}},{"type":"Feature","geometry":{"type":"Point","coordinates":[-71.07493,42.29138]},"properties":{"cartodb_id":297,"id":30296,"state":"MA","city":"Boston","street":" ASPINWALL RD at WASHINGTON ST"}},{"type":"Feature","geometry":{"type":"Point","coordinates":[-75.98675,40.313766]},"properties":{"cartodb_id":298,"id":30297,"state":"MA","city":"Boston","street":" DORCHESTER AV"}},{"type":"Feature","geometry":{"type":"Point","coordinates":[-71.06309,42.32045]},"properties":{"cartodb_id":299,"id":30298,"state":"MA","city":"Boston","street":"15 ELDER ST"}},{"type":"Feature","geometry":{"type":"Point","coordinates":[-71.08377,42.32887]},"properties":{"cartodb_id":300,"id":30299,"state":"MA","city":"Boston","street":"144  DUDLEY ST"}},{"type":"Feature","geometry":{"type":"Point","coordinates":[-71.07733,42.31328]},"properties":{"cartodb_id":301,"id":30300,"state":"MA","city":"Boston","street":" DUNKELD ST at FAYSTON ST"}},{"type":"Feature","geometry":{"type":"Point","coordinates":[-71.08047,42.32302]},"properties":{"cartodb_id":302,"id":30301,"state":"MA","city":"Boston","street":" WARREN ST at DUNREATH ST"}},{"type":"Feature","geometry":{"type":"Point","coordinates":[-70.943262,42.572508]},"properties":{"cartodb_id":303,"id":30302,"state":"MA","city":"Boston","street":"5 RICHARDS ST"}},{"type":"Feature","geometry":{"type":"Point","coordinates":[-71.08326,42.28302]},"properties":{"cartodb_id":304,"id":30303,"state":"MA","city":"Boston","street":"7 NELSON ST"}},{"type":"Feature","geometry":{"type":"Point","coordinates":[-87.926395,42.997744]},"properties":{"cartodb_id":305,"id":30304,"state":"MA","city":"Boston","street":"1120 HARRISON AV"}},{"type":"Feature","geometry":{"type":"Point","coordinates":[-71.10935,42.26293]},"properties":{"cartodb_id":306,"id":30305,"state":"MA","city":"Boston","street":"6 FRAZER ST"}},{"type":"Feature","geometry":{"type":"Point","coordinates":[-71.08643,42.2804]},"properties":{"cartodb_id":307,"id":30306,"state":"MA","city":"Boston","street":"0 ASTORIA ST"}},{"type":"Feature","geometry":{"type":"Point","coordinates":[-71.06275,42.35889]},"properties":{"cartodb_id":308,"id":30307,"state":"MA","city":"Boston","street":" BOWDOIN ST at MT IDA RD"}},{"type":"Feature","geometry":{"type":"Point","coordinates":[-71.07742,42.32439]},"properties":{"cartodb_id":309,"id":30308,"state":"MA","city":"Boston","street":"96 WINTHROP ST"}},{"type":"Feature","geometry":{"type":"Point","coordinates":[-71.06169,42.37356]},"properties":{"cartodb_id":310,"id":30309,"state":"MA","city":"Boston","street":" WINTHROP ST at WARREN ST"}},{"type":"Feature","geometry":{"type":"Point","coordinates":[-71.08789,42.30863]},"properties":{"cartodb_id":311,"id":30310,"state":"MA","city":"Boston","street":"116 ELM HILL AV"}},{"type":"Feature","geometry":{"type":"Point","coordinates":[-71.240563,41.904767]},"properties":{"cartodb_id":312,"id":30311,"state":"MA","city":"Boston","street":"47 SMITH ST"}},{"type":"Feature","geometry":{"type":"Point","coordinates":[-71.08394,42.31167]},"properties":{"cartodb_id":313,"id":30312,"state":"MA","city":"Boston","street":"7 HOWLAND ST"}},{"type":"Feature","geometry":{"type":"Point","coordinates":[-71.09472,42.2778]},"properties":{"cartodb_id":314,"id":30313,"state":"MA","city":"Boston","street":"695  WALK HILL ST"}},{"type":"Feature","geometry":{"type":"Point","coordinates":[-71.09387,42.33445]},"properties":{"cartodb_id":315,"id":30314,"state":"MA","city":"Boston","street":"70 ANNUNCIATION RD"}},{"type":"Feature","geometry":{"type":"Point","coordinates":[-71.06309,42.32045]},"properties":{"cartodb_id":316,"id":30315,"state":"MA","city":"Boston","street":"15 ELDER ST"}},{"type":"Feature","geometry":{"type":"Point","coordinates":[-71.06526,42.37312]},"properties":{"cartodb_id":317,"id":30316,"state":"MA","city":"Boston","street":"46 WASHINGTON ST"}},{"type":"Feature","geometry":{"type":"Point","coordinates":[-71.08239,42.33533]},"properties":{"cartodb_id":318,"id":30317,"state":"MA","city":"Boston","street":"35 HAMMOND ST"}},{"type":"Feature","geometry":{"type":"Point","coordinates":[-121.904601,37.280217]},"properties":{"cartodb_id":319,"id":30318,"state":"MA","city":"Boston","street":"60 FAIRLAWN AV"}},{"type":"Feature","geometry":{"type":"Point","coordinates":[-71.07703,42.28742]},"properties":{"cartodb_id":320,"id":30319,"state":"MA","city":"Boston","street":" NORFOLK ST at WHITMAN ST"}},{"type":"Feature","geometry":{"type":"Point","coordinates":[-71.039601,42.374213]},"properties":{"cartodb_id":321,"id":30320,"state":"MA","city":"Boston","street":" CENTRAL SQ"}},{"type":"Feature","geometry":{"type":"Point","coordinates":[-73.260838,42.439999]},"properties":{"cartodb_id":322,"id":30321,"state":"MA","city":"Boston","street":"75 BOYLSTON ST"}},{"type":"Feature","geometry":{"type":"Point","coordinates":[-71.0927,42.3346]},"properties":{"cartodb_id":323,"id":30322,"state":"MA","city":"Boston","street":"58 ANNUNCIATION RD"}},{"type":"Feature","geometry":{"type":"Point","coordinates":[-71.129452,42.385308]},"properties":{"cartodb_id":324,"id":30323,"state":"MA","city":"Boston","street":"4 FENNO ST"}},{"type":"Feature","geometry":{"type":"Point","coordinates":[-82.191673,41.461264]},"properties":{"cartodb_id":325,"id":30324,"state":"MA","city":"Boston","street":"9 MILDRED AV"}},{"type":"Feature","geometry":{"type":"Point","coordinates":[-71.08239,42.33533]},"properties":{"cartodb_id":326,"id":30325,"state":"MA","city":"Boston","street":"35 HAMMOND ST"}},{"type":"Feature","geometry":{"type":"Point","coordinates":[-71.15436,42.29134]},"properties":{"cartodb_id":327,"id":30326,"state":"MA","city":"Boston","street":"138 REDLANDS RD"}},{"type":"Feature","geometry":{"type":"Point","coordinates":[-71.07854,42.33559]},"properties":{"cartodb_id":328,"id":30327,"state":"MA","city":"Boston","street":"1829 WASHINGTON ST"}},{"type":"Feature","geometry":{"type":"Point","coordinates":[-71.035685,42.372745]},"properties":{"cartodb_id":329,"id":30328,"state":"MA","city":"Boston","street":"114 CHELSEA ST"}},{"type":"Feature","geometry":{"type":"Point","coordinates":[-71.07182,42.28625]},"properties":{"cartodb_id":330,"id":30329,"state":"MA","city":"Boston","street":" DUNBAR AV at WASHINGTON ST"}},{"type":"Feature","geometry":{"type":"Point","coordinates":[-71.072694,42.351189]},"properties":{"cartodb_id":331,"id":30330,"state":"MA","city":"Boston","street":"00 BOYLSTON ST"}},{"type":"Feature","geometry":{"type":"Point","coordinates":[-71.215632,42.348568]},"properties":{"cartodb_id":332,"id":30331,"state":"MA","city":"Boston","street":"28 ALLSTON ST"}},{"type":"Feature","geometry":{"type":"Point","coordinates":[-71.07603,42.29819]},"properties":{"cartodb_id":333,"id":30332,"state":"MA","city":"Boston","street":"51 HARVARD ST"}},{"type":"Feature","geometry":{"type":"Point","coordinates":[-71.096223,42.332356]},"properties":{"cartodb_id":334,"id":30333,"state":"MA","city":"Boston","street":"0 GURNEY ST at TREMONT ST"}},{"type":"Feature","geometry":{"type":"Point","coordinates":[-71.07006,42.2851]},"properties":{"cartodb_id":335,"id":30334,"state":"MA","city":"Boston","street":" RUNDEL PK at ASHMONT ST"}},{"type":"Feature","geometry":{"type":"Point","coordinates":[-71.08239,42.33533]},"properties":{"cartodb_id":336,"id":30335,"state":"MA","city":"Boston","street":"35 HAMMOND ST"}},{"type":"Feature","geometry":{"type":"Point","coordinates":[-71.08135,42.33517]},"properties":{"cartodb_id":337,"id":30336,"state":"MA","city":"Boston","street":" KENDALL ST at TROTTER CT"}},{"type":"Feature","geometry":{"type":"Point","coordinates":[-71.07508,42.32617]},"properties":{"cartodb_id":338,"id":30337,"state":"MA","city":"Boston","street":" DUNMORE ST at DUDLEY ST"}},{"type":"Feature","geometry":{"type":"Point","coordinates":[-71.015042,42.222477]},"properties":{"cartodb_id":339,"id":30338,"state":"MA","city":"Boston","street":"241 WALNUT ST"}},{"type":"Feature","geometry":{"type":"Point","coordinates":[-71.09644,42.31693]},"properties":{"cartodb_id":340,"id":30339,"state":"MA","city":"Boston","street":" WALNUT AV at WESTMINSTER ST"}},{"type":"Feature","geometry":{"type":"Point","coordinates":[-82.465295,27.962937]},"properties":{"cartodb_id":341,"id":30340,"state":"MA","city":"Boston","street":" MASSACHUSETTS AV at COLUMBUS"}},{"type":"Feature","geometry":{"type":"Point","coordinates":[-71.07755,42.31173]},"properties":{"cartodb_id":342,"id":30341,"state":"MA","city":"Boston","street":" WASHINGTON ST at NORMANDY ST"}},{"type":"Feature","geometry":{"type":"Point","coordinates":[-70.194341,41.73568]},"properties":{"cartodb_id":343,"id":30342,"state":"MA","city":"Boston","street":" MAIN ST"}},{"type":"Feature","geometry":{"type":"Point","coordinates":[-71.08087,42.33556]},"properties":{"cartodb_id":344,"id":30343,"state":"MA","city":"Boston","street":"617 SHAWMUT AV"}},{"type":"Feature","geometry":{"type":"Point","coordinates":[-71.07712,42.29357]},"properties":{"cartodb_id":345,"id":30344,"state":"MA","city":"Boston","street":"85 MILLET ST"}},{"type":"Feature","geometry":{"type":"Point","coordinates":[-71.07111,42.32162]},"properties":{"cartodb_id":346,"id":30345,"state":"MA","city":"Boston","street":"14  E COTTAGE ST"}},{"type":"Feature","geometry":{"type":"Point","coordinates":[-71.06306,42.355223]},"properties":{"cartodb_id":347,"id":30346,"state":"MA","city":"Boston","street":"00 TREMONT ST"}},{"type":"Feature","geometry":{"type":"Point","coordinates":[-75.98675,40.313766]},"properties":{"cartodb_id":348,"id":30347,"state":"MA","city":"Boston","street":"00 DORCHESTER AV at VON HILLER"}},{"type":"Feature","geometry":{"type":"Point","coordinates":[-71.05485,42.3287]},"properties":{"cartodb_id":349,"id":30348,"state":"MA","city":"Boston","street":"00 DORCHESTER AV at DEVINE WY"}},{"type":"Feature","geometry":{"type":"Point","coordinates":[-74.560184,39.957955]},"properties":{"cartodb_id":350,"id":30349,"state":"MA","city":"Boston","street":" WALNUT AV"}},{"type":"Feature","geometry":{"type":"Point","coordinates":[-71.072694,42.351189]},"properties":{"cartodb_id":351,"id":30350,"state":"MA","city":"Boston","street":" BOYLSTON ST"}},{"type":"Feature","geometry":{"type":"Point","coordinates":[-71.06809,42.3502]},"properties":{"cartodb_id":352,"id":30351,"state":"MA","city":"Boston","street":" SHAWMUT AV at HAMMOND ST"}},{"type":"Feature","geometry":{"type":"Point","coordinates":[-71.088168,42.435294]},"properties":{"cartodb_id":353,"id":30352,"state":"MA","city":"Boston","street":" ST RICHARD ST"}},{"type":"Feature","geometry":{"type":"Point","coordinates":[-71.088168,42.435294]},"properties":{"cartodb_id":354,"id":30353,"state":"MA","city":"Boston","street":" ST RICHARD ST"}},{"type":"Feature","geometry":{"type":"Point","coordinates":[-75.98675,40.313766]},"properties":{"cartodb_id":355,"id":30354,"state":"MA","city":"Boston","street":"1335 DORCHESTER AV"}},{"type":"Feature","geometry":{"type":"Point","coordinates":[-71.08234,42.29964]},"properties":{"cartodb_id":356,"id":30355,"state":"MA","city":"Boston","street":"2 PAGE ST"}},{"type":"Feature","geometry":{"type":"Point","coordinates":[-71.780014,42.271531]},"properties":{"cartodb_id":357,"id":30356,"state":"MA","city":"Boston","street":"20 CRESTON ST"}},{"type":"Feature","geometry":{"type":"Point","coordinates":[-71.052738,42.331432]},"properties":{"cartodb_id":358,"id":30357,"state":"MA","city":"Boston","street":"242 OLD COLONY AV"}},{"type":"Feature","geometry":{"type":"Point","coordinates":[-71.06887,42.30446]},"properties":{"cartodb_id":360,"id":30359,"state":"MA","city":"Boston","street":"5 TOPLIFF ST"}},{"type":"Feature","geometry":{"type":"Point","coordinates":[-104.805976,40.085558]},"properties":{"cartodb_id":361,"id":30360,"state":"MA","city":"Boston","street":" HARRISON AV at MELNEA CASS BL"}},{"type":"Feature","geometry":{"type":"Point","coordinates":[-88.552844,30.350996]},"properties":{"cartodb_id":362,"id":30361,"state":"MA","city":"Boston","street":" ST MARK ST"}},{"type":"Feature","geometry":{"type":"Point","coordinates":[-71.118,42.30802]},"properties":{"cartodb_id":363,"id":30362,"state":"MA","city":"Boston","street":" WASHINGTON ST at BALL ST"}},{"type":"Feature","geometry":{"type":"Point","coordinates":[-71.05241,42.31768]},"properties":{"cartodb_id":364,"id":30363,"state":"MA","city":"Boston","street":" CRESCENT AV at SYDNEY ST"}},{"type":"Feature","geometry":{"type":"Point","coordinates":[-71.074445,42.329367]},"properties":{"cartodb_id":365,"id":30364,"state":"MA","city":"Boston","street":" HAMPDEN ST at DUDLEY ST"}},{"type":"Feature","geometry":{"type":"Point","coordinates":[-71.08377,42.32887]},"properties":{"cartodb_id":366,"id":30365,"state":"MA","city":"Boston","street":"  DUDLEY ST"}},{"type":"Feature","geometry":{"type":"Point","coordinates":[-78.863401,42.906518]},"properties":{"cartodb_id":367,"id":30366,"state":"MA","city":"Boston","street":"45 SOUTHAMPTON ST"}},{"type":"Feature","geometry":{"type":"Point","coordinates":[-71.07515,42.31769]},"properties":{"cartodb_id":368,"id":30367,"state":"MA","city":"Boston","street":"0 DANUBE ST"}},{"type":"Feature","geometry":{"type":"Point","coordinates":[-71.14117,42.2891]},"properties":{"cartodb_id":369,"id":30368,"state":"MA","city":"Boston","street":"50 AINSWORTH ST"}},{"type":"Feature","geometry":{"type":"Point","coordinates":[-73.985953,40.683222]},"properties":{"cartodb_id":370,"id":30369,"state":"MA","city":"Boston","street":"478 WARREN ST"}},{"type":"Feature","geometry":{"type":"Point","coordinates":[-71.14183,42.28909]},"properties":{"cartodb_id":371,"id":30370,"state":"MA","city":"Boston","street":" GUERNSEY ST at TREMONT ST"}},{"type":"Feature","geometry":{"type":"Point","coordinates":[-71.082709,42.338307]},"properties":{"cartodb_id":372,"id":30371,"state":"MA","city":"Boston","street":"801 TREMONT ST"}},{"type":"Feature","geometry":{"type":"Point","coordinates":[-71.06347,42.30935]},"properties":{"cartodb_id":373,"id":30372,"state":"MA","city":"Boston","street":" FIFIELD ST at CHURCH ST"}},{"type":"Feature","geometry":{"type":"Point","coordinates":[-71.07151,42.29326]},"properties":{"cartodb_id":374,"id":30373,"state":"MA","city":"Boston","street":"528 WASHINGTON ST"}},{"type":"Feature","geometry":{"type":"Point","coordinates":[-71.08171,42.26999]},"properties":{"cartodb_id":375,"id":30374,"state":"MA","city":"Boston","street":" RIVER ST at MEADOWBANK AV"}},{"type":"Feature","geometry":{"type":"Point","coordinates":[-71.10309,42.33151]},"properties":{"cartodb_id":376,"id":30375,"state":"MA","city":"Boston","street":" CALUMET ST"}},{"type":"Feature","geometry":{"type":"Point","coordinates":[-71.09885,42.31004]},"properties":{"cartodb_id":377,"id":30376,"state":"MA","city":"Boston","street":"75 PETER PARLEY RD"}},{"type":"Feature","geometry":{"type":"Point","coordinates":[-71.055881,42.465904]},"properties":{"cartodb_id":378,"id":30377,"state":"MA","city":"Boston","street":"0 ALBERT ST"}},{"type":"Feature","geometry":{"type":"Point","coordinates":[-71.061437,42.372536]},"properties":{"cartodb_id":379,"id":30378,"state":"MA","city":"Boston","street":" PARK ST at CLAYTON"}},{"type":"Feature","geometry":{"type":"Point","coordinates":[-71.08534,42.29531]},"properties":{"cartodb_id":380,"id":30379,"state":"MA","city":"Boston","street":"214 HARVARD ST"}},{"type":"Feature","geometry":{"type":"Point","coordinates":[-75.98675,40.313766]},"properties":{"cartodb_id":381,"id":30380,"state":"MA","city":"Boston","street":" DORCHESTER AV"}},{"type":"Feature","geometry":{"type":"Point","coordinates":[-71.08763,42.33401]},"properties":{"cartodb_id":382,"id":30381,"state":"MA","city":"Boston","street":"160 RUGGLES ST"}},{"type":"Feature","geometry":{"type":"Point","coordinates":[-71.05179,42.32982]},"properties":{"cartodb_id":383,"id":30382,"state":"MA","city":"Boston","street":" COLUMBIA RD at BIRD ST"}},{"type":"Feature","geometry":{"type":"Point","coordinates":[-122.1524,37.744155]},"properties":{"cartodb_id":384,"id":30383,"state":"MA","city":"Boston","street":"32 FISHER AV"}},{"type":"Feature","geometry":{"type":"Point","coordinates":[-71.05079,42.31076]},"properties":{"cartodb_id":385,"id":30384,"state":"MA","city":"Boston","street":" CASPIAN WY at ROCKMERE ST"}},{"type":"Feature","geometry":{"type":"Point","coordinates":[-122.1524,37.744155]},"properties":{"cartodb_id":386,"id":30385,"state":"MA","city":"Boston","street":"32 FISHER AV"}},{"type":"Feature","geometry":{"type":"Point","coordinates":[-71.07233,42.3237]},"properties":{"cartodb_id":387,"id":30386,"state":"MA","city":"Boston","street":" SHIRLEY ST"}},{"type":"Feature","geometry":{"type":"Point","coordinates":[-71.121,42.26082]},"properties":{"cartodb_id":388,"id":30387,"state":"MA","city":"Boston","street":" WEST ST"}},{"type":"Feature","geometry":{"type":"Point","coordinates":[-71.08442,42.31021]},"properties":{"cartodb_id":389,"id":30388,"state":"MA","city":"Boston","street":"53 GEORGIA ST"}},{"type":"Feature","geometry":{"type":"Point","coordinates":[-71.08442,42.31021]},"properties":{"cartodb_id":390,"id":30389,"state":"MA","city":"Boston","street":"53 GEORGIA ST"}},{"type":"Feature","geometry":{"type":"Point","coordinates":[-71.08442,42.31021]},"properties":{"cartodb_id":391,"id":30390,"state":"MA","city":"Boston","street":"53 GEORGIA ST"}},{"type":"Feature","geometry":{"type":"Point","coordinates":[-71.05357,42.33083]},"properties":{"cartodb_id":392,"id":30391,"state":"MA","city":"Boston","street":"0 DORCHESTER ST at JENKINS ST"}},{"type":"Feature","geometry":{"type":"Point","coordinates":[-71.07068,42.32239]},"properties":{"cartodb_id":393,"id":30392,"state":"MA","city":"Boston","street":"30 ALBION ST"}},{"type":"Feature","geometry":{"type":"Point","coordinates":[-71.107713,42.261906]},"properties":{"cartodb_id":394,"id":30393,"state":"MA","city":"Boston","street":"870 RIVER ST"}},{"type":"Feature","geometry":{"type":"Point","coordinates":[-71.08104,42.33865]},"properties":{"cartodb_id":395,"id":30394,"state":"MA","city":"Boston","street":"792 TREMONT ST"}},{"type":"Feature","geometry":{"type":"Point","coordinates":[-71.08407,42.29493]},"properties":{"cartodb_id":396,"id":30395,"state":"MA","city":"Boston","street":"74 NIGHTINGALE ST"}},{"type":"Feature","geometry":{"type":"Point","coordinates":[-71.10135,42.32423]},"properties":{"cartodb_id":397,"id":30396,"state":"MA","city":"Boston","street":"60 BICKFORD ST"}},{"type":"Feature","geometry":{"type":"Point","coordinates":[-71.09097,42.28683]},"properties":{"cartodb_id":398,"id":30397,"state":"MA","city":"Boston","street":"0 BLUE HILL AV at FLOYD ST"}},{"type":"Feature","geometry":{"type":"Point","coordinates":[-71.06888,42.30456]},"properties":{"cartodb_id":399,"id":30398,"state":"MA","city":"Boston","street":"3 TOPLIFF ST"}},{"type":"Feature","geometry":{"type":"Point","coordinates":[-71.06888,42.30456]},"properties":{"cartodb_id":400,"id":30399,"state":"MA","city":"Boston","street":"3 TOPLIFF ST"}},{"type":"Feature","geometry":{"type":"Point","coordinates":[-71.06888,42.30456]},"properties":{"cartodb_id":401,"id":30400,"state":"MA","city":"Boston","street":"3 TOPLIFF ST"}},{"type":"Feature","geometry":{"type":"Point","coordinates":[-71.06888,42.30456]},"properties":{"cartodb_id":402,"id":30401,"state":"MA","city":"Boston","street":"3 TOPLIFF ST"}},{"type":"Feature","geometry":{"type":"Point","coordinates":[-81.025126,29.256205]},"properties":{"cartodb_id":403,"id":30402,"state":"MA","city":"Boston","street":"00 BROOKLINE AV"}},{"type":"Feature","geometry":{"type":"Point","coordinates":[-71.08047,42.33545]},"properties":{"cartodb_id":404,"id":30403,"state":"MA","city":"Boston","street":"614 SHAWMUT AV"}},{"type":"Feature","geometry":{"type":"Point","coordinates":[-71.07845,42.27532]},"properties":{"cartodb_id":405,"id":30404,"state":"MA","city":"Boston","street":"45 MARYKNOLL ST"}},{"type":"Feature","geometry":{"type":"Point","coordinates":[-71.08157,42.316125]},"properties":{"cartodb_id":406,"id":30405,"state":"MA","city":"Boston","street":" QUINCY ST at HOWARD ST"}},{"type":"Feature","geometry":{"type":"Point","coordinates":[-71.06275,42.35889]},"properties":{"cartodb_id":407,"id":30406,"state":"MA","city":"Boston","street":" BOWDOIN ST at HOLIDAY ST"}},{"type":"Feature","geometry":{"type":"Point","coordinates":[-71.08326,42.28302]},"properties":{"cartodb_id":408,"id":30407,"state":"MA","city":"Boston","street":"7 NELSON ST"}},{"type":"Feature","geometry":{"type":"Point","coordinates":[-71.09387,42.33445]},"properties":{"cartodb_id":409,"id":30408,"state":"MA","city":"Boston","street":"70 ANNUNCIATION RD"}},{"type":"Feature","geometry":{"type":"Point","coordinates":[-71.0711,42.29673]},"properties":{"cartodb_id":410,"id":30409,"state":"MA","city":"Boston","street":"90 CLAYBOURNE ST"}},{"type":"Feature","geometry":{"type":"Point","coordinates":[-71.08275,42.30737]},"properties":{"cartodb_id":411,"id":30410,"state":"MA","city":"Boston","street":"23 WASHINGTON ST"}},{"type":"Feature","geometry":{"type":"Point","coordinates":[-71.0888,42.29606]},"properties":{"cartodb_id":412,"id":30411,"state":"MA","city":"Boston","street":"26 ANGELL ST"}},{"type":"Feature","geometry":{"type":"Point","coordinates":[-71.08377,42.32887]},"properties":{"cartodb_id":413,"id":30412,"state":"MA","city":"Boston","street":" DUDLEY ST at NORTH AV"}},{"type":"Feature","geometry":{"type":"Point","coordinates":[-71.09219,42.31533]},"properties":{"cartodb_id":414,"id":30413,"state":"MA","city":"Boston","street":"136 CRAWFORD ST"}},{"type":"Feature","geometry":{"type":"Point","coordinates":[-71.05917,42.31972]},"properties":{"cartodb_id":415,"id":30414,"state":"MA","city":"Boston","street":"759 COLUMBIA RD"}},{"type":"Feature","geometry":{"type":"Point","coordinates":[-71.05179,42.32982]},"properties":{"cartodb_id":416,"id":30415,"state":"MA","city":"Boston","street":"560 COLUMBIA RD"}},{"type":"Feature","geometry":{"type":"Point","coordinates":[-71.07194,42.28228]},"properties":{"cartodb_id":417,"id":30416,"state":"MA","city":"Boston","street":"12 MORA ST"}},{"type":"Feature","geometry":{"type":"Point","coordinates":[-71.05558,42.2943]},"properties":{"cartodb_id":418,"id":30417,"state":"MA","city":"Boston","street":"19 ELMDALE ST"}},{"type":"Feature","geometry":{"type":"Point","coordinates":[-71.08296,42.33109]},"properties":{"cartodb_id":419,"id":30418,"state":"MA","city":"Boston","street":"2201 WASHINGTON ST"}},{"type":"Feature","geometry":{"type":"Point","coordinates":[-71.09063,42.31113]},"properties":{"cartodb_id":420,"id":30419,"state":"MA","city":"Boston","street":" HUMBOLDT AV at HUTCHINGS ST"}},{"type":"Feature","geometry":{"type":"Point","coordinates":[-71.07045,42.31682]},"properties":{"cartodb_id":421,"id":30420,"state":"MA","city":"Boston","street":"52 MAGNOLIA ST"}},{"type":"Feature","geometry":{"type":"Point","coordinates":[-71.07045,42.31682]},"properties":{"cartodb_id":422,"id":30421,"state":"MA","city":"Boston","street":"52 MAGNOLIA ST"}},{"type":"Feature","geometry":{"type":"Point","coordinates":[-71.07045,42.31682]},"properties":{"cartodb_id":423,"id":30422,"state":"MA","city":"Boston","street":"52 MAGNOLIA ST"}},{"type":"Feature","geometry":{"type":"Point","coordinates":[-71.07045,42.31682]},"properties":{"cartodb_id":424,"id":30423,"state":"MA","city":"Boston","street":"52 MAGNOLIA ST"}},{"type":"Feature","geometry":{"type":"Point","coordinates":[-71.081459,42.338431]},"properties":{"cartodb_id":425,"id":30424,"state":"MA","city":"Boston","street":"806 TREMONT ST"}},{"type":"Feature","geometry":{"type":"Point","coordinates":[-71.08052,42.34476]},"properties":{"cartodb_id":426,"id":30425,"state":"MA","city":"Boston","street":"200 W NEWTON ST"}},{"type":"Feature","geometry":{"type":"Point","coordinates":[-71.07732,42.3223]},"properties":{"cartodb_id":427,"id":30426,"state":"MA","city":"Boston","street":"87  BLUE HILL AV"}},{"type":"Feature","geometry":{"type":"Point","coordinates":[-71.06021,42.29618]},"properties":{"cartodb_id":428,"id":30427,"state":"MA","city":"Boston","street":" ADAMS ST at PARKMAN ST"}},{"type":"Feature","geometry":{"type":"Point","coordinates":[-71.09669,42.27657]},"properties":{"cartodb_id":429,"id":30428,"state":"MA","city":"Boston","street":"70 TENNIS RD"}},{"type":"Feature","geometry":{"type":"Point","coordinates":[-71.052048,42.454796]},"properties":{"cartodb_id":430,"id":30429,"state":"MA","city":"Boston","street":"350 GROVE ST"}},{"type":"Feature","geometry":{"type":"Point","coordinates":[-71.06111,42.34934]},"properties":{"cartodb_id":431,"id":30430,"state":"MA","city":"Boston","street":" WASHINGTON ST at HARVARD ST"}},{"type":"Feature","geometry":{"type":"Point","coordinates":[-71.073726,42.332045]},"properties":{"cartodb_id":432,"id":30431,"state":"MA","city":"Boston","street":" MELNEA CASS BL"}},{"type":"Feature","geometry":{"type":"Point","coordinates":[-71.09646,42.317902]},"properties":{"cartodb_id":433,"id":30432,"state":"MA","city":"Boston","street":"2981 WASHINGTON ST"}},{"type":"Feature","geometry":{"type":"Point","coordinates":[-71.09097,42.28683]},"properties":{"cartodb_id":434,"id":30433,"state":"MA","city":"Boston","street":" BLUE HILL AV at QUINCY ST"}},{"type":"Feature","geometry":{"type":"Point","coordinates":[-71.10083,42.27703]},"properties":{"cartodb_id":435,"id":30434,"state":"MA","city":"Boston","street":"84 ALABAMA ST"}},{"type":"Feature","geometry":{"type":"Point","coordinates":[-71.09387,42.33445]},"properties":{"cartodb_id":436,"id":30435,"state":"MA","city":"Boston","street":"70 ANNUNCIATION RD"}},{"type":"Feature","geometry":{"type":"Point","coordinates":[-71.161428,42.258257]},"properties":{"cartodb_id":437,"id":30436,"state":"MA","city":"Boston","street":"5315 WASHINGTON ST"}},{"type":"Feature","geometry":{"type":"Point","coordinates":[-71.08826,42.29003]},"properties":{"cartodb_id":438,"id":30437,"state":"MA","city":"Boston","street":" BLUE HILL AV at STRATTON ST"}},{"type":"Feature","geometry":{"type":"Point","coordinates":[-71.065323,42.343623]},"properties":{"cartodb_id":439,"id":30438,"state":"MA","city":"Boston","street":"00 E BERKELEY ST"}},{"type":"Feature","geometry":{"type":"Point","coordinates":[-71.09203,42.33565]},"properties":{"cartodb_id":440,"id":30439,"state":"MA","city":"Boston","street":" ANNUNCIATION RD"}},{"type":"Feature","geometry":{"type":"Point","coordinates":[-71.09203,42.33565]},"properties":{"cartodb_id":441,"id":30440,"state":"MA","city":"Boston","street":" ANNUNCIATION RD"}},{"type":"Feature","geometry":{"type":"Point","coordinates":[-71.09097,42.28683]},"properties":{"cartodb_id":442,"id":30441,"state":"MA","city":"Boston","street":" BLUE HILL AV at WARREN ST"}},{"type":"Feature","geometry":{"type":"Point","coordinates":[-71.09097,42.28683]},"properties":{"cartodb_id":443,"id":30442,"state":"MA","city":"Boston","street":"00 HOLBORN ST at BLUE HILL AV"}},{"type":"Feature","geometry":{"type":"Point","coordinates":[-71.096337,42.278643]},"properties":{"cartodb_id":444,"id":30443,"state":"MA","city":"Boston","street":"77 MATTAPAN ST"}},{"type":"Feature","geometry":{"type":"Point","coordinates":[-84.888305,31.03887]},"properties":{"cartodb_id":445,"id":30444,"state":"MA","city":"Boston","street":"403 W 4TH ST"}},{"type":"Feature","geometry":{"type":"Point","coordinates":[-71.536123,43.18368]},"properties":{"cartodb_id":446,"id":30445,"state":"MA","city":"Boston","street":"206 WOOD AV"}},{"type":"Feature","geometry":{"type":"Point","coordinates":[-71.03764,42.37066]},"properties":{"cartodb_id":447,"id":30446,"state":"MA","city":"Boston","street":"31 CHELSEA ST"}},{"type":"Feature","geometry":{"type":"Point","coordinates":[-71.06611,42.30149]},"properties":{"cartodb_id":448,"id":30447,"state":"MA","city":"Boston","street":" WESTVILLE ST at AMES ST"}},{"type":"Feature","geometry":{"type":"Point","coordinates":[-71.08386,42.32268]},"properties":{"cartodb_id":450,"id":30449,"state":"MA","city":"Boston","street":" FENNO ST"}},{"type":"Feature","geometry":{"type":"Point","coordinates":[-117.089264,32.681111]},"properties":{"cartodb_id":451,"id":30450,"state":"MA","city":"Boston","street":" E 8TH ST"}},{"type":"Feature","geometry":{"type":"Point","coordinates":[-71.06306,42.355223]},"properties":{"cartodb_id":452,"id":30451,"state":"MA","city":"Boston","street":" TREMONT ST"}},{"type":"Feature","geometry":{"type":"Point","coordinates":[-71.06306,42.355223]},"properties":{"cartodb_id":453,"id":30452,"state":"MA","city":"Boston","street":" TREMONT ST"}},{"type":"Feature","geometry":{"type":"Point","coordinates":[-115.106189,35.958737]},"properties":{"cartodb_id":454,"id":30453,"state":"MA","city":"Boston","street":"1895 RIVER ST"}},{"type":"Feature","geometry":{"type":"Point","coordinates":[-71.07433,42.31484]},"properties":{"cartodb_id":455,"id":30454,"state":"MA","city":"Boston","street":" WOODLEDGE ST at CUNNINGHAM ST"}},{"type":"Feature","geometry":{"type":"Point","coordinates":[-71.09097,42.28683]},"properties":{"cartodb_id":456,"id":30455,"state":"MA","city":"Boston","street":" BLUE HILL AV at WOODCLIFF ST"}},{"type":"Feature","geometry":{"type":"Point","coordinates":[-71.14924,42.26889]},"properties":{"cartodb_id":457,"id":30456,"state":"MA","city":"Boston","street":"4925 WASHINGTON ST"}},{"type":"Feature","geometry":{"type":"Point","coordinates":[-71.09287,42.33508]},"properties":{"cartodb_id":458,"id":30457,"state":"MA","city":"Boston","street":"50 ANNUNCIATION RD"}},{"type":"Feature","geometry":{"type":"Point","coordinates":[-71.09063,42.31113]},"properties":{"cartodb_id":459,"id":30458,"state":"MA","city":"Boston","street":"0 ELM HILL AV at HUTCHINGS ST"}},{"type":"Feature","geometry":{"type":"Point","coordinates":[-71.09063,42.31113]},"properties":{"cartodb_id":460,"id":30459,"state":"MA","city":"Boston","street":"0 ELM HILL AV at HUTCHINGS ST"}},{"type":"Feature","geometry":{"type":"Point","coordinates":[-71.06306,42.355223]},"properties":{"cartodb_id":461,"id":30460,"state":"MA","city":"Boston","street":"0 TREMONT ST at PARK ST"}},{"type":"Feature","geometry":{"type":"Point","coordinates":[-71.06306,42.355223]},"properties":{"cartodb_id":462,"id":30461,"state":"MA","city":"Boston","street":"0 TREMONT ST at PARK ST"}},{"type":"Feature","geometry":{"type":"Point","coordinates":[-71.08316,42.33157]},"properties":{"cartodb_id":463,"id":30462,"state":"MA","city":"Boston","street":"13 RUGGLES ST"}},{"type":"Feature","geometry":{"type":"Point","coordinates":[-71.081379,42.335687]},"properties":{"cartodb_id":464,"id":30463,"state":"MA","city":"Boston","street":"0 TROTTER CT"}},{"type":"Feature","geometry":{"type":"Point","coordinates":[-73.260838,42.439999]},"properties":{"cartodb_id":633,"id":30632,"state":"MA","city":"Boston","street":"75 BOYLSTON ST"}},{"type":"Feature","geometry":{"type":"Point","coordinates":[-71.08685,42.31399]},"properties":{"cartodb_id":465,"id":30464,"state":"MA","city":"Boston","street":"0 HUMBOLDT AV at WAUMBECK ST"}},{"type":"Feature","geometry":{"type":"Point","coordinates":[-122.032874,37.610386]},"properties":{"cartodb_id":466,"id":30465,"state":"MA","city":"Boston","street":"0 GENEVA AV"}},{"type":"Feature","geometry":{"type":"Point","coordinates":[-71.06501,42.31856]},"properties":{"cartodb_id":467,"id":30466,"state":"MA","city":"Boston","street":" HAMLET ST"}},{"type":"Feature","geometry":{"type":"Point","coordinates":[-71.06501,42.31856]},"properties":{"cartodb_id":468,"id":30467,"state":"MA","city":"Boston","street":" HAMLET ST"}},{"type":"Feature","geometry":{"type":"Point","coordinates":[-71.086374,42.329269]},"properties":{"cartodb_id":469,"id":30468,"state":"MA","city":"Boston","street":"10 MALCOLM X BL"}},{"type":"Feature","geometry":{"type":"Point","coordinates":[-71.06693,42.377127]},"properties":{"cartodb_id":470,"id":30469,"state":"MA","city":"Boston","street":"0 STACEY ST"}},{"type":"Feature","geometry":{"type":"Point","coordinates":[-71.05179,42.32982]},"properties":{"cartodb_id":471,"id":30470,"state":"MA","city":"Boston","street":" WASHINGTON ST at COLUMBIA RD"}},{"type":"Feature","geometry":{"type":"Point","coordinates":[-71.080899,42.317453]},"properties":{"cartodb_id":472,"id":30471,"state":"MA","city":"Boston","street":" WARREN ST at MAYWOOD ST"}},{"type":"Feature","geometry":{"type":"Point","coordinates":[-71.091127,42.342111]},"properties":{"cartodb_id":473,"id":30472,"state":"MA","city":"Boston","street":"00 FENWAY"}},{"type":"Feature","geometry":{"type":"Point","coordinates":[-71.08582,42.298305]},"properties":{"cartodb_id":474,"id":30473,"state":"MA","city":"Boston","street":" TALBOT AV at WALES ST"}},{"type":"Feature","geometry":{"type":"Point","coordinates":[-71.080883,42.327563]},"properties":{"cartodb_id":475,"id":30474,"state":"MA","city":"Boston","street":" DUDLEY ST at GREENVILLE ST"}},{"type":"Feature","geometry":{"type":"Point","coordinates":[-71.08114,42.33682]},"properties":{"cartodb_id":476,"id":30475,"state":"MA","city":"Boston","street":" WASHINGTON ST at LENOX ST"}},{"type":"Feature","geometry":{"type":"Point","coordinates":[-71.102628,42.377922]},"properties":{"cartodb_id":477,"id":30476,"state":"MA","city":"Boston","street":"276 ARBORWAY at ST ROSE ST"}},{"type":"Feature","geometry":{"type":"Point","coordinates":[-71.09026,42.31578]},"properties":{"cartodb_id":478,"id":30477,"state":"MA","city":"Boston","street":"42 HOLLANDER ST"}},{"type":"Feature","geometry":{"type":"Point","coordinates":[-71.08125,42.28442]},"properties":{"cartodb_id":479,"id":30478,"state":"MA","city":"Boston","street":"253 NORFOLK ST"}},{"type":"Feature","geometry":{"type":"Point","coordinates":[-122.271025,37.90097]},"properties":{"cartodb_id":480,"id":30479,"state":"MA","city":"Boston","street":"28 MICHIGAN AV"}},{"type":"Feature","geometry":{"type":"Point","coordinates":[-71.102628,42.377922]},"properties":{"cartodb_id":481,"id":30480,"state":"MA","city":"Boston","street":" ARBORWAY at ST ROSE ST"}},{"type":"Feature","geometry":{"type":"Point","coordinates":[-71.09026,42.31578]},"properties":{"cartodb_id":482,"id":30481,"state":"MA","city":"Boston","street":"42 HOLLANDER ST"}},{"type":"Feature","geometry":{"type":"Point","coordinates":[-71.102628,42.377922]},"properties":{"cartodb_id":483,"id":30482,"state":"MA","city":"Boston","street":" ARBORWAY at ST ROSE ST"}},{"type":"Feature","geometry":{"type":"Point","coordinates":[-71.06651,42.29979]},"properties":{"cartodb_id":484,"id":30483,"state":"MA","city":"Boston","street":" GENEVA AV at BLOOMFIELD ST"}},{"type":"Feature","geometry":{"type":"Point","coordinates":[-71.07733,42.31328]},"properties":{"cartodb_id":485,"id":30484,"state":"MA","city":"Boston","street":" FAYSTON ST"}},{"type":"Feature","geometry":{"type":"Point","coordinates":[-71.10939,42.3328]},"properties":{"cartodb_id":486,"id":30485,"state":"MA","city":"Boston","street":"10 PARKER HILL AV"}},{"type":"Feature","geometry":{"type":"Point","coordinates":[-70.162841,41.736704]},"properties":{"cartodb_id":487,"id":30486,"state":"MA","city":"Boston","street":"110 HIGHCREST TR"}},{"type":"Feature","geometry":{"type":"Point","coordinates":[-122.073539,37.637122]},"properties":{"cartodb_id":488,"id":30487,"state":"MA","city":"Boston","street":"3 SHEPHERD AV"}},{"type":"Feature","geometry":{"type":"Point","coordinates":[-71.102628,42.377922]},"properties":{"cartodb_id":489,"id":30488,"state":"MA","city":"Boston","street":" ARBORWAY at ST ROSE ST"}},{"type":"Feature","geometry":{"type":"Point","coordinates":[-71.06306,42.355223]},"properties":{"cartodb_id":490,"id":30489,"state":"MA","city":"Boston","street":" TREMONT ST at MALCOLM X BL"}},{"type":"Feature","geometry":{"type":"Point","coordinates":[-71.07664,42.30053]},"properties":{"cartodb_id":491,"id":30490,"state":"MA","city":"Boston","street":" WASHINGTON ST at VASSAR ST"}},{"type":"Feature","geometry":{"type":"Point","coordinates":[-71.059998,42.371948]},"properties":{"cartodb_id":492,"id":30491,"state":"MA","city":"Boston","street":" WARREN ST"}},{"type":"Feature","geometry":{"type":"Point","coordinates":[-71.309185,42.626759]},"properties":{"cartodb_id":493,"id":30492,"state":"MA","city":"Boston","street":"40 LONDON ST"}},{"type":"Feature","geometry":{"type":"Point","coordinates":[-71.08763,42.33401]},"properties":{"cartodb_id":494,"id":30493,"state":"MA","city":"Boston","street":" COLUMBUS AV at RUGGLES ST"}},{"type":"Feature","geometry":{"type":"Point","coordinates":[-71.309185,42.626759]},"properties":{"cartodb_id":495,"id":30494,"state":"MA","city":"Boston","street":"40 LONDON ST"}},{"type":"Feature","geometry":{"type":"Point","coordinates":[-71.108821,42.2731]},"properties":{"cartodb_id":496,"id":30495,"state":"MA","city":"Boston","street":"14 TAMPA ST"}},{"type":"Feature","geometry":{"type":"Point","coordinates":[-71.125216,42.388308]},"properties":{"cartodb_id":497,"id":30496,"state":"MA","city":"Boston","street":" DUDLEY ST at MT PLEASANT ST"}},{"type":"Feature","geometry":{"type":"Point","coordinates":[-122.110281,37.659157]},"properties":{"cartodb_id":498,"id":30497,"state":"MA","city":"Boston","street":"300 LONGWOOD AV"}},{"type":"Feature","geometry":{"type":"Point","coordinates":[-71.07536,42.2819]},"properties":{"cartodb_id":499,"id":30498,"state":"MA","city":"Boston","street":"89 MORA ST"}},{"type":"Feature","geometry":{"type":"Point","coordinates":[-71.034921,42.380949]},"properties":{"cartodb_id":500,"id":30499,"state":"MA","city":"Boston","street":"86 WHITE ST"}},{"type":"Feature","geometry":{"type":"Point","coordinates":[-71.432498,42.986517]},"properties":{"cartodb_id":501,"id":30500,"state":"MA","city":"Boston","street":" HUNTINGTON AV"}},{"type":"Feature","geometry":{"type":"Point","coordinates":[-71.14961,42.26075]},"properties":{"cartodb_id":502,"id":30501,"state":"MA","city":"Boston","street":" W BOUNDARY RD"}},{"type":"Feature","geometry":{"type":"Point","coordinates":[-71.076998,42.327979]},"properties":{"cartodb_id":503,"id":30502,"state":"MA","city":"Boston","street":"56 ADAMS ST"}},{"type":"Feature","geometry":{"type":"Point","coordinates":[-71.1021,42.32621]},"properties":{"cartodb_id":504,"id":30503,"state":"MA","city":"Boston","street":"106 APT101 HEATH ST"}},