{"type": "FeatureCollection", "features": [{"type":"Feature","geometry":{"type":"Point","coordinates":[-71.732215,42.502328]},"properties":{"cartodb_id":772,"id":83269,"street":"00 CASPIAN WY","city":"Boston","state":"MA"}},{"type":"Feature","geometry":{"type":"Point","coordinates":[-70.003553,41.8399]},"properties":{"cartodb_id":1436,"id":83933,"street":" LONG WF","city":"Boston","state":"MA"}},{"type":"Feature","geometry":{"type":"Point","coordinates":[-71.078055,42.42157]},"properties":{"cartodb_id":1788,"id":84285,"street":" ADAMS ST","city":"Boston","state":"MA"}},{"type":"Feature","geometry":{"type":"Point","coordinates":[-70.974985,42.232121]},"properties":{"cartodb_id":2228,"id":84725,"street":" QUINCY ST at BAKER AV","city":"Boston","state":"MA"}},{"type":"Feature","geometry":{"type":"Point","coordinates":[-71.113044,42.31307]},"properties":{"cartodb_id":3286,"id":85783,"street":" GREEN ST","city":"Boston","state":"MA"}},{"type":"Feature","geometry":{"type":"Point","coordinates":[-70.869951,42.809558]},"properties":{"cartodb_id":3468,"id":85965,"street":" CHARTER ST","city":"Boston","state":"MA"}},{"type":"Feature","geometry":{"type":"Point","coordinates":[-71.803563,42.833122]},"properties":{"cartodb_id":4931,"id":87428,"street":"1 RING RD","city":"Boston","state":"MA"}},{"type":"Feature","geometry":{"type":"Point","coordinates":[-71.06198,42.35122]},"properties":{"cartodb_id":5374,"id":87871,"street":"0 KNAPP ST","city":"Boston","state":"MA"}},{"type":"Feature","geometry":{"type":"Point","coordinates":[-71.100955,42.370892]},"properties":{"cartodb_id":6226,"id":88723,"street":" AMORY ST","city":"Boston","state":"MA"}},{"type":"Feature","geometry":{"type":"Point","coordinates":[-72.561739,42.206505]},"properties":{"cartodb_id":7401,"id":89898,"street":" ANSON ST","city":"Boston","state":"MA"}},{"type":"Feature","geometry":{"type":"Point","coordinates":[-71.017264,42.1042]},"properties":{"cartodb_id":592,"id":83089,"street":" INTERVALE ST","city":"Boston","state":"MA"}},{"type":"Feature","geometry":{"type":"Point","coordinates":[-71.058098,42.378067]},"properties":{"cartodb_id":1070,"id":83567,"street":"10 MCNULTY CT","city":"Boston","state":"MA"}},{"type":"Feature","geometry":{"type":"Point","coordinates":[-71.04083,42.38014]},"properties":{"cartodb_id":1191,"id":83688,"street":"400 BORDER ST","city":"Boston","state":"MA"}},{"type":"Feature","geometry":{"type":"Point","coordinates":[-71.457785,42.432523]},"properties":{"cartodb_id":1307,"id":83804,"street":"0 W BROADWAY at E ST","city":"Boston","state":"MA"}},{"type":"Feature","geometry":{"type":"Point","coordinates":[-71.110315,42.321636]},"properties":{"cartodb_id":1900,"id":84397,"street":" CENTRE ST","city":"Boston","state":"MA"}},{"type":"Feature","geometry":{"type":"Point","coordinates":[-70.683287,42.031799]},"properties":{"cartodb_id":3563,"id":86060,"street":"29 REYNOLDS WY","city":"Boston","state":"MA"}},{"type":"Feature","geometry":{"type":"Point","coordinates":[-71.03594,42.375091]},"properties":{"cartodb_id":4513,"id":87010,"street":"228 HAVRE ST","city":"Boston","state":"MA"}},{"type":"Feature","geometry":{"type":"Point","coordinates":[-71.07847,42.29952]},"properties":{"cartodb_id":4750,"id":87247,"street":" RADCLIFFE ST","city":"Boston","state":"MA"}},{"type":"Feature","geometry":{"type":"Point","coordinates":[-70.924223,41.623183]},"properties":{"cartodb_id":5105,"id":87602,"street":" PURCHASE ST","city":"Boston","state":"MA"}},{"type":"Feature","geometry":{"type":"Point","coordinates":[-70.956533,42.199929]},"properties":{"cartodb_id":1,"id":82498,"street":" WINTER ST at WASHINGTON ST","city":"Boston","state":"MA"}},{"type":"Feature","geometry":{"type":"Point","coordinates":[-71.180856,42.290229]},"properties":{"cartodb_id":2,"id":82499,"street":" WALNUT AV at MARTIN LUTHER RD","city":"Boston","state":"MA"}},{"type":"Feature","geometry":{"type":"Point","coordinates":[-71.05692,42.3166]},"properties":{"cartodb_id":3,"id":82500,"street":" ADAMS ST at DORCHESTER AV","city":"Boston","state":"MA"}},{"type":"Feature","geometry":{"type":"Point","coordinates":[-71.09281,42.33487]},"properties":{"cartodb_id":4,"id":82501,"street":"54 ANNUNCIATION RD","city":"Boston","state":"MA"}},{"type":"Feature","geometry":{"type":"Point","coordinates":[-71.08389,42.319131]},"properties":{"cartodb_id":5,"id":82502,"street":"97 CHARLAME PL","city":"Boston","state":"MA"}},{"type":"Feature","geometry":{"type":"Point","coordinates":[-71.08087,42.33556]},"properties":{"cartodb_id":6,"id":82503,"street":"617 SHAWMUT AV","city":"Boston","state":"MA"}},{"type":"Feature","geometry":{"type":"Point","coordinates":[-71.448776,42.434855]},"properties":{"cartodb_id":7,"id":82504,"street":" WALNUT ST at WARREN ST","city":"Boston","state":"MA"}},{"type":"Feature","geometry":{"type":"Point","coordinates":[-71.073726,42.332045]},"properties":{"cartodb_id":8,"id":82505,"street":" MELNEA CASS BL","city":"Boston","state":"MA"}},{"type":"Feature","geometry":{"type":"Point","coordinates":[-71.081969,42.336146]},"properties":{"cartodb_id":9,"id":82506,"street":"26 LATTIMORE CT","city":"Boston","state":"MA"}},{"type":"Feature","geometry":{"type":"Point","coordinates":[-71.06238,42.3582]},"properties":{"cartodb_id":10,"id":82507,"street":" BEACON ST at CHARLES ST","city":"Boston","state":"MA"}},{"type":"Feature","geometry":{"type":"Point","coordinates":[-71.06625,42.30637]},"properties":{"cartodb_id":11,"id":82508,"street":"148  DRAPER ST","city":"Boston","state":"MA"}},{"type":"Feature","geometry":{"type":"Point","coordinates":[-71.10859,42.31786]},"properties":{"cartodb_id":12,"id":82509,"street":"39 BOYLSTON ST","city":"Boston","state":"MA"}},{"type":"Feature","geometry":{"type":"Point","coordinates":[-71.057103,42.35133]},"properties":{"cartodb_id":13,"id":82510,"street":"86 SOUTH ST","city":"Boston","state":"MA"}},{"type":"Feature","geometry":{"type":"Point","coordinates":[-71.057103,42.35133]},"properties":{"cartodb_id":14,"id":82511,"street":"86 SOUTH ST","city":"Boston","state":"MA"}},{"type":"Feature","geometry":{"type":"Point","coordinates":[-73.260838,42.439999]},"properties":{"cartodb_id":15,"id":82512,"street":"75 BOYLSTON ST","city":"Boston","state":"MA"}},{"type":"Feature","geometry":{"type":"Point","coordinates":[-73.260838,42.439999]},"properties":{"cartodb_id":16,"id":82513,"street":"75 BOYLSTON ST","city":"Boston","state":"MA"}},{"type":"Feature","geometry":{"type":"Point","coordinates":[-73.260838,42.439999]},"properties":{"cartodb_id":17,"id":82514,"street":"75 BOYLSTON ST","city":"Boston","state":"MA"}},{"type":"Feature","geometry":{"type":"Point","coordinates":[-73.260838,42.439999]},"properties":{"cartodb_id":18,"id":82515,"street":"75 BOYLSTON ST","city":"Boston","state":"MA"}},{"type":"Feature","geometry":{"type":"Point","coordinates":[-70.613112,42.658054]},"properties":{"cartodb_id":19,"id":82516,"street":"0 ATLANTIC AV at MILK ST","city":"Boston","state":"MA"}},{"type":"Feature","geometry":{"type":"Point","coordinates":[-71.0638,42.35216]},"properties":{"cartodb_id":20,"id":82517,"street":"40 BOYLSTON ST","city":"Boston","state":"MA"}},{"type":"Feature","geometry":{"type":"Point","coordinates":[-71.06053,42.35054]},"properties":{"cartodb_id":21,"id":82518,"street":"0 KNEELAND ST at TYLER ST","city":"Boston","state":"MA"}},{"type":"Feature","geometry":{"type":"Point","coordinates":[-73.260838,42.439999]},"properties":{"cartodb_id":22,"id":82519,"street":"75 BOYLSTON ST","city":"Boston","state":"MA"}},{"type":"Feature","geometry":{"type":"Point","coordinates":[-70.613112,42.658054]},"properties":{"cartodb_id":23,"id":82520,"street":"0 ATLANTIC AV at MILK ST","city":"Boston","state":"MA"}},{"type":"Feature","geometry":{"type":"Point","coordinates":[-71.081833,42.336646]},"properties":{"cartodb_id":24,"id":82521,"street":"9 LATTIMORE CT","city":"Boston","state":"MA"}},{"type":"Feature","geometry":{"type":"Point","coordinates":[-82.465295,27.962937]},"properties":{"cartodb_id":25,"id":82522,"street":"00 MASSACHUSETTS AV","city":"Boston","state":"MA"}},{"type":"Feature","geometry":{"type":"Point","coordinates":[-71.09588,42.32561]},"properties":{"cartodb_id":26,"id":82523,"street":" FORT AV at BEECH GLEN ST","city":"Boston","state":"MA"}},{"type":"Feature","geometry":{"type":"Point","coordinates":[-70.959308,42.642167]},"properties":{"cartodb_id":27,"id":82524,"street":"67 WASHINGTON ST","city":"Boston","state":"MA"}},{"type":"Feature","geometry":{"type":"Point","coordinates":[-90.787634,35.015332]},"properties":{"cartodb_id":28,"id":82525,"street":"0 N WASHINGTON ST at THATCHER","city":"Boston","state":"MA"}},{"type":"Feature","geometry":{"type":"Point","coordinates":[-71.0769,42.350514]},"properties":{"cartodb_id":29,"id":82526,"street":"587 BOYLSTON ST","city":"Boston","state":"MA"}},{"type":"Feature","geometry":{"type":"Point","coordinates":[-71.06611,42.30149]},"properties":{"cartodb_id":30,"id":82527,"street":" GENEVA AV at WESTVILLE ST","city":"Boston","state":"MA"}},{"type":"Feature","geometry":{"type":"Point","coordinates":[-71.06986,42.29538]},"properties":{"cartodb_id":31,"id":82528,"street":"54 ALPHA RD","city":"Boston","state":"MA"}},{"type":"Feature","geometry":{"type":"Point","coordinates":[-71.056562,42.363753]},"properties":{"cartodb_id":32,"id":82529,"street":"0 STILLMAN ST","city":"Boston","state":"MA"}},{"type":"Feature","geometry":{"type":"Point","coordinates":[-71.074209,42.429047]},"properties":{"cartodb_id":33,"id":82530,"street":" SUMMER ST","city":"Boston","state":"MA"}},{"type":"Feature","geometry":{"type":"Point","coordinates":[-71.107921,42.139785]},"properties":{"cartodb_id":34,"id":82531,"street":" STOUGHTON ST at SUMMER ST","city":"Boston","state":"MA"}},{"type":"Feature","geometry":{"type":"Point","coordinates":[-71.097563,42.417308]},"properties":{"cartodb_id":35,"id":82532,"street":"0 DUDLEY ST","city":"Boston","state":"MA"}},{"type":"Feature","geometry":{"type":"Point","coordinates":[-71.08031,42.31215]},"properties":{"cartodb_id":36,"id":82533,"street":"364 BLUE HILL AV","city":"Boston","state":"MA"}},{"type":"Feature","geometry":{"type":"Point","coordinates":[-71.382102,42.610843]},"properties":{"cartodb_id":37,"id":82534,"street":"00 ARBUTUS ST at BLUE HILL AV","city":"Boston","state":"MA"}},{"type":"Feature","geometry":{"type":"Point","coordinates":[-71.08845,42.31112]},"properties":{"cartodb_id":38,"id":82535,"street":"136 HOMESTEAD ST","city":"Boston","state":"MA"}},{"type":"Feature","geometry":{"type":"Point","coordinates":[-71.08362,42.2878]},"properties":{"cartodb_id":39,"id":82536,"street":" LYFORD ST at WOODROW AV","city":"Boston","state":"MA"}},{"type":"Feature","geometry":{"type":"Point","coordinates":[-71.05727,42.30952]},"properties":{"cartodb_id":40,"id":82537,"street":" DORCHESTER AV at DEWAR ST","city":"Boston","state":"MA"}},{"type":"Feature","geometry":{"type":"Point","coordinates":[-71.143785,42.360623]},"properties":{"cartodb_id":41,"id":82538,"street":" WARREN ST at WAVERLY ST","city":"Boston","state":"MA"}},{"type":"Feature","geometry":{"type":"Point","coordinates":[-70.931026,42.576721]},"properties":{"cartodb_id":42,"id":82539,"street":"0 QUINCY ST at BOWDOIN ST","city":"Boston","state":"MA"}},{"type":"Feature","geometry":{"type":"Point","coordinates":[-71.159212,42.371372]},"properties":{"cartodb_id":43,"id":82540,"street":" WOODROW AV at IRMA ST","city":"Boston","state":"MA"}},{"type":"Feature","geometry":{"type":"Point","coordinates":[-73.096128,42.354887]},"properties":{"cartodb_id":44,"id":82541,"street":" COLUMBIA RD at WASHINGTON ST","city":"Boston","state":"MA"}},{"type":"Feature","geometry":{"type":"Point","coordinates":[-71.039041,42.38274]},"properties":{"cartodb_id":45,"id":82542,"street":" MERIDIAN ST at CONDOR ST","city":"Boston","state":"MA"}},{"type":"Feature","geometry":{"type":"Point","coordinates":[-71.014626,42.261552]},"properties":{"cartodb_id":46,"id":82543,"street":" OLD COLONY AV at DORCHESTER S","city":"Boston","state":"MA"}},{"type":"Feature","geometry":{"type":"Point","coordinates":[-71.175002,42.088241]},"properties":{"cartodb_id":47,"id":82544,"street":" WASHINGTON ST at MORSE ST","city":"Boston","state":"MA"}},{"type":"Feature","geometry":{"type":"Point","coordinates":[-71.014626,42.261552]},"properties":{"cartodb_id":48,"id":82545,"street":" OLD COLONY AV at DORCHESTER S","city":"Boston","state":"MA"}},{"type":"Feature","geometry":{"type":"Point","coordinates":[-71.014626,42.261552]},"properties":{"cartodb_id":49,"id":82546,"street":" OLD COLONY AV at DORCHESTER S","city":"Boston","state":"MA"}},{"type":"Feature","geometry":{"type":"Point","coordinates":[-71.148867,42.485269]},"properties":{"cartodb_id":50,"id":82547,"street":" WASHINGTON ST at ST JAMES ST","city":"Boston","state":"MA"}},{"type":"Feature","geometry":{"type":"Point","coordinates":[-71.07397,42.30265]},"properties":{"cartodb_id":51,"id":82548,"street":"6 MALLON RD","city":"Boston","state":"MA"}},{"type":"Feature","geometry":{"type":"Point","coordinates":[-75.98675,40.313766]},"properties":{"cartodb_id":52,"id":82549,"street":"1199 DORCHESTER AV","city":"Boston","state":"MA"}},{"type":"Feature","geometry":{"type":"Point","coordinates":[-75.98675,40.313766]},"properties":{"cartodb_id":53,"id":82550,"street":"1199 DORCHESTER AV","city":"Boston","state":"MA"}},{"type":"Feature","geometry":{"type":"Point","coordinates":[-75.98675,40.313766]},"properties":{"cartodb_id":54,"id":82551,"street":"1199 DORCHESTER AV","city":"Boston","state":"MA"}},{"type":"Feature","geometry":{"type":"Point","coordinates":[-104.805976,40.085558]},"properties":{"cartodb_id":55,"id":82552,"street":"874 HARRISON AV","city":"Boston","state":"MA"}},{"type":"Feature","geometry":{"type":"Point","coordinates":[-71.06372,42.30282]},"properties":{"cartodb_id":56,"id":82553,"street":"43  DRAPER ST","city":"Boston","state":"MA"}},{"type":"Feature","geometry":{"type":"Point","coordinates":[-75.98675,40.313766]},"properties":{"cartodb_id":57,"id":82554,"street":"1512  DORCHESTER AV","city":"Boston","state":"MA"}},{"type":"Feature","geometry":{"type":"Point","coordinates":[-75.98675,40.313766]},"properties":{"cartodb_id":58,"id":82555,"street":"1512  DORCHESTER AV","city":"Boston","state":"MA"}},{"type":"Feature","geometry":{"type":"Point","coordinates":[-71.1035,42.26691]},"properties":{"cartodb_id":59,"id":82556,"street":"11 RALWOOD RD","city":"Boston","state":"MA"}},{"type":"Feature","geometry":{"type":"Point","coordinates":[-74.060573,40.911456]},"properties":{"cartodb_id":60,"id":82557,"street":"227 FAIRMOUNT AV","city":"Boston","state":"MA"}},{"type":"Feature","geometry":{"type":"Point","coordinates":[-71.053575,41.635486]},"properties":{"cartodb_id":61,"id":82558,"street":" AMERICAN LEGION HY","city":"Boston","state":"MA"}},{"type":"Feature","geometry":{"type":"Point","coordinates":[-71.04113,42.38205]},"properties":{"cartodb_id":62,"id":82559,"street":"810  BORDER ST","city":"Boston","state":"MA"}},{"type":"Feature","geometry":{"type":"Point","coordinates":[-71.028226,42.388181]},"properties":{"cartodb_id":63,"id":82560,"street":"170   MAVERICK ST","city":"Boston","state":"MA"}},{"type":"Feature","geometry":{"type":"Point","coordinates":[-70.996537,42.408514]},"properties":{"cartodb_id":64,"id":82561,"street":"50 WALNUT PK","city":"Boston","state":"MA"}},{"type":"Feature","geometry":{"type":"Point","coordinates":[-71.135385,42.329489]},"properties":{"cartodb_id":65,"id":82562,"street":"569 BOYLSTON ST","city":"Boston","state":"MA"}},{"type":"Feature","geometry":{"type":"Point","coordinates":[-71.10154,42.26478]},"properties":{"cartodb_id":66,"id":82563,"street":"25 ALPINE ST","city":"Boston","state":"MA"}},{"type":"Feature","geometry":{"type":"Point","coordinates":[-71.809243,42.263125]},"properties":{"cartodb_id":67,"id":82564,"street":"1 CONGRESS ST","city":"Boston","state":"MA"}},{"type":"Feature","geometry":{"type":"Point","coordinates":[-71.083505,42.42274]},"properties":{"cartodb_id":68,"id":82565,"street":" TOWNSEND ST at CRESTWOOD PK","city":"Boston","state":"MA"}},{"type":"Feature","geometry":{"type":"Point","coordinates":[-76.890842,39.154494]},"properties":{"cartodb_id":69,"id":82566,"street":"19 GAVIN WY","city":"Boston","state":"MA"}},{"type":"Feature","geometry":{"type":"Point","coordinates":[-71.12506,42.387469]},"properties":{"cartodb_id":70,"id":82567,"street":"29 MT PLEASANT ST","city":"Boston","state":"MA"}},{"type":"Feature","geometry":{"type":"Point","coordinates":[-82.465295,27.962937]},"properties":{"cartodb_id":71,"id":82568,"street":"874 MASSACHUSETTS AV","city":"Boston","state":"MA"}},{"type":"Feature","geometry":{"type":"Point","coordinates":[-71.06189,42.320677]},"properties":{"cartodb_id":72,"id":82569,"street":"0 BLUE HILL AV","city":"Boston","state":"MA"}},{"type":"Feature","geometry":{"type":"Point","coordinates":[-71.809243,42.263125]},"properties":{"cartodb_id":73,"id":82570,"street":"1 CONGRESS ST","city":"Boston","state":"MA"}},{"type":"Feature","geometry":{"type":"Point","coordinates":[-71.07165,42.3216]},"properties":{"cartodb_id":74,"id":82571,"street":"10 E COTTAGE ST","city":"Boston","state":"MA"}},{"type":"Feature","geometry":{"type":"Point","coordinates":[-71.163713,42.488254]},"properties":{"cartodb_id":75,"id":82572,"street":"9 LINDEN ST","city":"Boston","state":"MA"}},{"type":"Feature","geometry":{"type":"Point","coordinates":[-71.06129,42.32729]},"properties":{"cartodb_id":76,"id":82573,"street":"8 ALLSTATE RD","city":"Boston","state":"MA"}},{"type":"Feature","geometry":{"type":"Point","coordinates":[-71.065313,42.320412]},"properties":{"cartodb_id":77,"id":82574,"street":"12 HUMPHREYS ST","city":"Boston","state":"MA"}},{"type":"Feature","geometry":{"type":"Point","coordinates":[-71.06129,42.32729]},"properties":{"cartodb_id":78,"id":82575,"street":"8 ALLSTATE RD","city":"Boston","state":"MA"}},{"type":"Feature","geometry":{"type":"Point","coordinates":[-71.886099,42.360711]},"properties":{"cartodb_id":79,"id":82576,"street":"0 PORTLAND ST at CAUSEWAY ST","city":"Boston","state":"MA"}},{"type":"Feature","geometry":{"type":"Point","coordinates":[-71.155232,42.252558]},"properties":{"cartodb_id":80,"id":82577,"street":" BUSSEY ST","city":"Boston","state":"MA"}},{"type":"Feature","geometry":{"type":"Point","coordinates":[-71.186886,43.830844]},"properties":{"cartodb_id":81,"id":82578,"street":"10  LOGAN WY","city":"Boston","state":"MA"}},{"type":"Feature","geometry":{"type":"Point","coordinates":[-71.06129,42.32729]},"properties":{"cartodb_id":82,"id":82579,"street":"8 ALLSTATE RD","city":"Boston","state":"MA"}},{"type":"Feature","geometry":{"type":"Point","coordinates":[-71.081801,42.336237]},"properties":{"cartodb_id":83,"id":82580,"street":"18 LATTIMORE CT","city":"Boston","state":"MA"}},{"type":"Feature","geometry":{"type":"Point","coordinates":[-71.081129,42.335809]},"properties":{"cartodb_id":84,"id":82581,"street":"18 TROTTER CT","city":"Boston","state":"MA"}},{"type":"Feature","geometry":{"type":"Point","coordinates":[-71.332317,42.49202]},"properties":{"cartodb_id":85,"id":82582,"street":" MONUMENT ST","city":"Boston","state":"MA"}},{"type":"Feature","geometry":{"type":"Point","coordinates":[-74.560184,39.957955]},"properties":{"cartodb_id":86,"id":82583,"street":" WALNUT AV","city":"Boston","state":"MA"}},{"type":"Feature","geometry":{"type":"Point","coordinates":[-71.10586,42.30623]},"properties":{"cartodb_id":87,"id":82584,"street":" GARTLAND ST","city":"Boston","state":"MA"}},{"type":"Feature","geometry":{"type":"Point","coordinates":[-71.149967,42.375806]},"properties":{"cartodb_id":88,"id":82585,"street":"41 HOLWORTHY ST","city":"Boston","state":"MA"}},{"type":"Feature","geometry":{"type":"Point","coordinates":[-82.465295,27.962937]},"properties":{"cartodb_id":89,"id":82586,"street":" MASSACHUSETTS AV","city":"Boston","state":"MA"}},{"type":"Feature","geometry":{"type":"Point","coordinates":[-71.08127,42.32927]},"properties":{"cartodb_id":90,"id":82587,"street":"0 ZEIGLER ST at WINSLOW ST","city":"Boston","state":"MA"}},{"type":"Feature","geometry":{"type":"Point","coordinates":[-71.137064,42.324906]},"properties":{"cartodb_id":91,"id":82588,"street":"140 DUDLEY ST","city":"Boston","state":"MA"}},{"type":"Feature","geometry":{"type":"Point","coordinates":[-82.41592,39.543419]},"properties":{"cartodb_id":92,"id":82589,"street":"295 WOOD ST","city":"Boston","state":"MA"}},{"type":"Feature","geometry":{"type":"Point","coordinates":[-71.164046,42.308648]},"properties":{"cartodb_id":93,"id":82590,"street":" WASHINGTON ST at LAGRANGE ST","city":"Boston","state":"MA"}},{"type":"Feature","geometry":{"type":"Point","coordinates":[-71.072694,42.351189]},"properties":{"cartodb_id":94,"id":82591,"street":"0 WASHINGTON ST at BOYLSTON ST","city":"Boston","state":"MA"}},{"type":"Feature","geometry":{"type":"Point","coordinates":[-71.072694,42.351189]},"properties":{"cartodb_id":95,"id":82592,"street":"0 WASHINGTON ST at BOYLSTON ST","city":"Boston","state":"MA"}},{"type":"Feature","geometry":{"type":"Point","coordinates":[-71.072694,42.351189]},"properties":{"cartodb_id":96,"id":82593,"street":"0 WASHINGTON ST at BOYLSTON ST","city":"Boston","state":"MA"}},{"type":"Feature","geometry":{"type":"Point","coordinates":[-71.050993,42.309581]},"properties":{"cartodb_id":97,"id":82594,"street":" SAVIN ST at BLUE HILL AV","city":"Boston","state":"MA"}},{"type":"Feature","geometry":{"type":"Point","coordinates":[-73.287747,42.357685]},"properties":{"cartodb_id":98,"id":82595,"street":"0 KNEELAND ST at HARRISON AV","city":"Boston","state":"MA"}},{"type":"Feature","geometry":{"type":"Point","coordinates":[-71.06329,42.32933]},"properties":{"cartodb_id":99,"id":82596,"street":"7 ALLSTATE RD","city":"Boston","state":"MA"}},{"type":"Feature","geometry":{"type":"Point","coordinates":[-71.09401,42.28712]},"properties":{"cartodb_id":100,"id":82597,"street":"605 MORTON ST","city":"Boston","state":"MA"}},{"type":"Feature","geometry":{"type":"Point","coordinates":[-71.08437,42.30473]},"properties":{"cartodb_id":101,"id":82598,"street":"570 BLUE HILL AV","city":"Boston","state":"MA"}},{"type":"Feature","geometry":{"type":"Point","coordinates":[-71.067781,42.36102]},"properties":{"cartodb_id":102,"id":82599,"street":" WASHINGTON ST at CAMBRIDGE ST","city":"Boston","state":"MA"}},{"type":"Feature","geometry":{"type":"Point","coordinates":[-71.09227,42.28735]},"properties":{"cartodb_id":103,"id":82600,"street":"34 JOHNSTON RD","city":"Boston","state":"MA"}},{"type":"Feature","geometry":{"type":"Point","coordinates":[-71.081178,42.318663]},"properties":{"cartodb_id":104,"id":82601,"street":"364  WARREN ST","city":"Boston","state":"MA"}},{"type":"Feature","geometry":{"type":"Point","coordinates":[-71.056551,42.467683]},"properties":{"cartodb_id":105,"id":82602,"street":" WASHINGTON ST at RUGGLES ST","city":"Boston","state":"MA"}},{"type":"Feature","geometry":{"type":"Point","coordinates":[-70.918792,42.52681]},"properties":{"cartodb_id":106,"id":82603,"street":"0 DENNIS ST","city":"Boston","state":"MA"}},{"type":"Feature","geometry":{"type":"Point","coordinates":[-71.08447,42.28319]},"properties":{"cartodb_id":107,"id":82604,"street":"341 NORFOLK ST","city":"Boston","state":"MA"}},{"type":"Feature","geometry":{"type":"Point","coordinates":[-71.05797,42.29457]},"properties":{"cartodb_id":108,"id":82605,"street":"369 CENTRE ST","city":"Boston","state":"MA"}},{"type":"Feature","geometry":{"type":"Point","coordinates":[-71.08167,42.335874]},"properties":{"cartodb_id":109,"id":82606,"street":"25 TROTTER CT","city":"Boston","state":"MA"}},{"type":"Feature","geometry":{"type":"Point","coordinates":[-71.180856,42.290229]},"properties":{"cartodb_id":110,"id":82607,"street":"100 MARTIN LUTHER RD","city":"Boston","state":"MA"}},{"type":"Feature","geometry":{"type":"Point","coordinates":[-71.07749,42.32794]},"properties":{"cartodb_id":111,"id":82608,"street":"306 DUDLEY ST","city":"Boston","state":"MA"}},{"type":"Feature","geometry":{"type":"Point","coordinates":[-71.07244,42.33805]},"properties":{"cartodb_id":112,"id":82609,"street":" E NEWTON ST at WASHINGTON ST","city":"Boston","state":"MA"}},{"type":"Feature","geometry":{"type":"Point","coordinates":[-73.242724,42.437559]},"properties":{"cartodb_id":113,"id":82610,"street":"58 WAVERLY ST","city":"Boston","state":"MA"}},{"type":"Feature","geometry":{"type":"Point","coordinates":[-71.016097,42.071514]},"properties":{"cartodb_id":114,"id":82611,"street":" ROBINSON ST at MONTELLO ST","city":"Boston","state":"MA"}},{"type":"Feature","geometry":{"type":"Point","coordinates":[-71.062583,42.339646]},"properties":{"cartodb_id":115,"id":82612,"street":" W BROADWAY at FRONTAGE RD","city":"Boston","state":"MA"}},{"type":"Feature","geometry":{"type":"Point","coordinates":[-71.08052,42.34476]},"properties":{"cartodb_id":116,"id":82613,"street":"87 W NEWTON ST","city":"Boston","state":"MA"}},{"type":"Feature","geometry":{"type":"Point","coordinates":[-71.150664,42.376705]},"properties":{"cartodb_id":117,"id":82614,"street":" HOLWORTHY ST","city":"Boston","state":"MA"}},{"type":"Feature","geometry":{"type":"Point","coordinates":[-71.08482,42.2859]},"properties":{"cartodb_id":118,"id":82615,"street":"17 MASCOT ST","city":"Boston","state":"MA"}},{"type":"Feature","geometry":{"type":"Point","coordinates":[-71.07666,42.31604]},"properties":{"cartodb_id":119,"id":82616,"street":"42 WOODCLIFF ST","city":"Boston","state":"MA"}},{"type":"Feature","geometry":{"type":"Point","coordinates":[-70.877774,42.812182]},"properties":{"cartodb_id":120,"id":82617,"street":"0 ATKINSON ST","city":"Boston","state":"MA"}},{"type":"Feature","geometry":{"type":"Point","coordinates":[-71.09316,42.276]},"properties":{"cartodb_id":121,"id":82618,"street":"1410 BLUE HILL AV","city":"Boston","state":"MA"}},{"type":"Feature","geometry":{"type":"Point","coordinates":[-71.07705,42.32196]},"properties":{"cartodb_id":122,"id":82619,"street":"92 BLUE HILL AV","city":"Boston","state":"MA"}},{"type":"Feature","geometry":{"type":"Point","coordinates":[-71.07705,42.32196]},"properties":{"cartodb_id":123,"id":82620,"street":"92 BLUE HILL AV","city":"Boston","state":"MA"}},{"type":"Feature","geometry":{"type":"Point","coordinates":[-71.06986,42.29811]},"properties":{"cartodb_id":124,"id":82621,"street":" TONAWANDA ST","city":"Boston","state":"MA"}},{"type":"Feature","geometry":{"type":"Point","coordinates":[-71.239729,42.315841]},"properties":{"cartodb_id":125,"id":82622,"street":" DEARBORN ST","city":"Boston","state":"MA"}},{"type":"Feature","geometry":{"type":"Point","coordinates":[-71.053575,41.635486]},"properties":{"cartodb_id":126,"id":82623,"street":"753 AMERICAN LEGION HY","city":"Boston","state":"MA"}},{"type":"Feature","geometry":{"type":"Point","coordinates":[-71.09045,42.29338]},"properties":{"cartodb_id":127,"id":82624,"street":" HARVARD ST at LORNE ST","city":"Boston","state":"MA"}},{"type":"Feature","geometry":{"type":"Point","coordinates":[-70.927256,42.214884]},"properties":{"cartodb_id":128,"id":82625,"street":" WORCESTER ST at SHAWMUT AV","city":"Boston","state":"MA"}},{"type":"Feature","geometry":{"type":"Point","coordinates":[-71.107361,42.239958]},"properties":{"cartodb_id":129,"id":82626,"street":" BLUE HILL AV at COLUMBIA RD","city":"Boston","state":"MA"}},{"type":"Feature","geometry":{"type":"Point","coordinates":[-71.073497,42.452777]},"properties":{"cartodb_id":130,"id":82627,"street":" TRENTON ST at MARION ST","city":"Boston","state":"MA"}},{"type":"Feature","geometry":{"type":"Point","coordinates":[-71.057553,42.461824]},"properties":{"cartodb_id":131,"id":82628,"street":" BURRELL ST at BATCHELDER ST","city":"Boston","state":"MA"}},{"type":"Feature","geometry":{"type":"Point","coordinates":[-71.077086,42.319834]},"properties":{"cartodb_id":132,"id":82629,"street":" JULIAN ST at DALIN PL","city":"Boston","state":"MA"}},{"type":"Feature","geometry":{"type":"Point","coordinates":[-71.07389,42.34041]},"properties":{"cartodb_id":133,"id":82630,"street":"411 SHAWMUT AV","city":"Boston","state":"MA"}},{"type":"Feature","geometry":{"type":"Point","coordinates":[-71.097563,42.417308]},"properties":{"cartodb_id":134,"id":82631,"street":"187 DUDLEY ST","city":"Boston","state":"MA"}},{"type":"Feature","geometry":{"type":"Point","coordinates":[-71.054968,42.45123]},"properties":{"cartodb_id":135,"id":82632,"street":"37 MERIDIAN ST","city":"Boston","state":"MA"}},{"type":"Feature","geometry":{"type":"Point","coordinates":[-71.1234,42.255757]},"properties":{"cartodb_id":136,"id":82633,"street":"1248 RIVER ST","city":"Boston","state":"MA"}},{"type":"Feature","geometry":{"type":"Point","coordinates":[-71.06534,42.32055]},"properties":{"cartodb_id":137,"id":82634,"street":" HUMPHREYS ST at CRAWFORD ST","city":"Boston","state":"MA"}},{"type":"Feature","geometry":{"type":"Point","coordinates":[-71.063492,42.292157]},"properties":{"cartodb_id":138,"id":82635,"street":" DORCHESTER AV at CHEVERUS RD","city":"Boston","state":"MA"}},{"type":"Feature","geometry":{"type":"Point","coordinates":[-71.809243,42.263125]},"properties":{"cartodb_id":139,"id":82636,"street":"1 CONGRESS ST","city":"Boston","state":"MA"}},{"type":"Feature","geometry":{"type":"Point","coordinates":[-71.239483,42.383429]},"properties":{"cartodb_id":140,"id":82637,"street":"56  DALE ST","city":"Boston","state":"MA"}},{"type":"Feature","geometry":{"type":"Point","coordinates":[-71.14163,42.467941]},"properties":{"cartodb_id":141,"id":82638,"street":" ARLINGTON ST","city":"Boston","state":"MA"}},{"type":"Feature","geometry":{"type":"Point","coordinates":[-83.760495,42.270906]},"properties":{"cartodb_id":142,"id":82639,"street":"35 MT PLEASANT AV","city":"Boston","state":"MA"}},{"type":"Feature","geometry":{"type":"Point","coordinates":[-71.09545,42.3155]},"properties":{"cartodb_id":143,"id":82640,"street":" WESTMINSTER AV at WALDREN RD","city":"Boston","state":"MA"}},{"type":"Feature","geometry":{"type":"Point","coordinates":[-71.107361,42.239958]},"properties":{"cartodb_id":144,"id":82641,"street":"0 CHENEY ST at BLUE HILL AV","city":"Boston","state":"MA"}},{"type":"Feature","geometry":{"type":"Point","coordinates":[-71.117512,42.384278]},"properties":{"cartodb_id":145,"id":82642,"street":" COLUMBUS AV at PRENTISS ST","city":"Boston","state":"MA"}},{"type":"Feature","geometry":{"type":"Point","coordinates":[-71.820835,42.249268]},"properties":{"cartodb_id":146,"id":82643,"street":" CHENEY ST at HARTWELL ST","city":"Boston","state":"MA"}},{"type":"Feature","geometry":{"type":"Point","coordinates":[-71.09912,42.26575]},"properties":{"cartodb_id":147,"id":82644,"street":" CUMMINS HY at ROCKDALE ST","city":"Boston","state":"MA"}},{"type":"Feature","geometry":{"type":"Point","coordinates":[-71.07755,42.31173]},"properties":{"cartodb_id":148,"id":82645,"street":" WASHINGTON ST at NORMANDY ST","city":"Boston","state":"MA"}},{"type":"Feature","geometry":{"type":"Point","coordinates":[-71.06372,42.30282]},"properties":{"cartodb_id":149,"id":82646,"street":"43  DRAPER ST","city":"Boston","state":"MA"}},{"type":"Feature","geometry":{"type":"Point","coordinates":[-71.07769,42.33995]},"properties":{"cartodb_id":150,"id":82647,"street":"00 W CONCORD ST","city":"Boston","state":"MA"}},{"type":"Feature","geometry":{"type":"Point","coordinates":[-75.98675,40.313766]},"properties":{"cartodb_id":151,"id":82648,"street":"846 DORCHESTER AV","city":"Boston","state":"MA"}},{"type":"Feature","geometry":{"type":"Point","coordinates":[-71.034817,42.366576]},"properties":{"cartodb_id":152,"id":82649,"street":"365 SUMNER ST","city":"Boston","state":"MA"}},{"type":"Feature","geometry":{"type":"Point","coordinates":[-71.057412,42.379738]},"properties":{"cartodb_id":153,"id":82650,"street":"56 OLD IRONSIDES WY","city":"Boston","state":"MA"}},{"type":"Feature","geometry":{"type":"Point","coordinates":[-71.107361,42.239958]},"properties":{"cartodb_id":154,"id":82651,"street":" BLUE HILL AV at WARREN ST","city":"Boston","state":"MA"}},{"type":"Feature","geometry":{"type":"Point","coordinates":[-71.228003,42.530766]},"properties":{"cartodb_id":155,"id":82652,"street":"00 DORCHESTER AV at DORSET ST","city":"Boston","state":"MA"}},{"type":"Feature","geometry":{"type":"Point","coordinates":[-71.107361,42.239958]},"properties":{"cartodb_id":156,"id":82653,"street":" BLUE HILL AV at WOODROW AV","city":"Boston","state":"MA"}},{"type":"Feature","geometry":{"type":"Point","coordinates":[-71.178362,42.534068]},"properties":{"cartodb_id":157,"id":82654,"street":" MARION ST at WHITE ST","city":"Boston","state":"MA"}},{"type":"Feature","geometry":{"type":"Point","coordinates":[-71.05128,42.332471]},"properties":{"cartodb_id":158,"id":82655,"street":"246 DORCHESTER ST","city":"Boston","state":"MA"}},{"type":"Feature","geometry":{"type":"Point","coordinates":[-71.793835,42.243942]},"properties":{"cartodb_id":159,"id":82656,"street":" WASHINGTON ST at STOCKTON ST","city":"Boston","state":"MA"}},{"type":"Feature","geometry":{"type":"Point","coordinates":[-70.932705,41.616242]},"properties":{"cartodb_id":160,"id":82657,"street":"0 JENKINS ST at DORCHESTER ST","city":"Boston","state":"MA"}},{"type":"Feature","geometry":{"type":"Point","coordinates":[-71.107741,42.749717]},"properties":{"cartodb_id":161,"id":82658,"street":"0 M ST","city":"Boston","state":"MA"}},{"type":"Feature","geometry":{"type":"Point","coordinates":[-89.705786,36.426374]},"properties":{"cartodb_id":162,"id":82659,"street":"309 W 3RD ST","city":"Boston","state":"MA"}},{"type":"Feature","geometry":{"type":"Point","coordinates":[-71.014389,42.291125]},"properties":{"cartodb_id":163,"id":82660,"street":"00 LANSDOWNE ST","city":"Boston","state":"MA"}},{"type":"Feature","geometry":{"type":"Point","coordinates":[-71.06571,42.30538]},"properties":{"cartodb_id":164,"id":82661,"street":"118 DRAPER ST","city":"Boston","state":"MA"}},{"type":"Feature","geometry":{"type":"Point","coordinates":[-71.107361,42.239958]},"properties":{"cartodb_id":165,"id":82662,"street":" BLUE HILL AV at WOODCLIFF ST","city":"Boston","state":"MA"}},{"type":"Feature","geometry":{"type":"Point","coordinates":[-71.750442,42.567322]},"properties":{"cartodb_id":166,"id":82663,"street":" DORCHESTER AV at GREENWICH ST","city":"Boston","state":"MA"}},{"type":"Feature","geometry":{"type":"Point","coordinates":[-71.07127,42.32161]},"properties":{"cartodb_id":167,"id":82664,"street":" E COTTAGE ST at COLUMBIA RD","city":"Boston","state":"MA"}},{"type":"Feature","geometry":{"type":"Point","coordinates":[-71.08163,42.29995]},"properties":{"cartodb_id":168,"id":82665,"street":" HARVARD ST at GLENWAY ST","city":"Boston","state":"MA"}},{"type":"Feature","geometry":{"type":"Point","coordinates":[-71.087629,42.30286]},"properties":{"cartodb_id":169,"id":82666,"street":" FRANKLIN PARK RD","city":"Boston","state":"MA"}},{"type":"Feature","geometry":{"type":"Point","coordinates":[-71.417756,42.052631]},"properties":{"cartodb_id":170,"id":82667,"street":" WASHINGTON ST at MALCOLM X BL","city":"Boston","state":"MA"}},{"type":"Feature","geometry":{"type":"Point","coordinates":[-72.734579,42.563414]},"properties":{"cartodb_id":171,"id":82668,"street":"476  BLUE HILL AV","city":"Boston","state":"MA"}},{"type":"Feature","geometry":{"type":"Point","coordinates":[-71.08675,42.31599]},"properties":{"cartodb_id":172,"id":82669,"street":" HUMBOLDT AV at CRAWFORD ST","city":"Boston","state":"MA"}},{"type":"Feature","geometry":{"type":"Point","coordinates":[-82.465295,27.962937]},"properties":{"cartodb_id":173,"id":82670,"street":"473 MASSACHUSETTS AV","city":"Boston","state":"MA"}},{"type":"Feature","geometry":{"type":"Point","coordinates":[-71.07244,42.33805]},"properties":{"cartodb_id":174,"id":82671,"street":" HARRISON AV at E NEWTON ST","city":"Boston","state":"MA"}},{"type":"Feature","geometry":{"type":"Point","coordinates":[-71.044864,42.335767]},"properties":{"cartodb_id":175,"id":82672,"street":"0 DORCHESTER ST at DORCHESTER","city":"Boston","state":"MA"}},{"type":"Feature","geometry":{"type":"Point","coordinates":[-71.06386,42.31979]},"properties":{"cartodb_id":176,"id":82673,"street":"6 CAWFIELD ST","city":"Boston","state":"MA"}},{"type":"Feature","geometry":{"type":"Point","coordinates":[-75.98675,40.313766]},"properties":{"cartodb_id":177,"id":82674,"street":"0 DORCHESTER AV at DORCHESTER","city":"Boston","state":"MA"}},{"type":"Feature","geometry":{"type":"Point","coordinates":[-71.05863,42.2988]},"properties":{"cartodb_id":178,"id":82675,"street":" PARK ST at BISPHAM ST","city":"Boston","state":"MA"}},{"type":"Feature","geometry":{"type":"Point","coordinates":[-71.08424,42.30903]},"properties":{"cartodb_id":179,"id":82676,"street":"21 CHENEY ST","city":"Boston","state":"MA"}},{"type":"Feature","geometry":{"type":"Point","coordinates":[-71.08424,42.30903]},"properties":{"cartodb_id":180,"id":82677,"street":"21 CHENEY ST","city":"Boston","state":"MA"}},{"type":"Feature","geometry":{"type":"Point","coordinates":[-71.08424,42.30903]},"properties":{"cartodb_id":181,"id":82678,"street":"21 CHENEY ST","city":"Boston","state":"MA"}},{"type":"Feature","geometry":{"type":"Point","coordinates":[-71.08424,42.30903]},"properties":{"cartodb_id":182,"id":82679,"street":"21 CHENEY ST","city":"Boston","state":"MA"}},{"type":"Feature","geometry":{"type":"Point","coordinates":[-71.107361,42.239958]},"properties":{"cartodb_id":183,"id":82680,"street":" BLUE HILL AV at WASHINGTON ST","city":"Boston","state":"MA"}},{"type":"Feature","geometry":{"type":"Point","coordinates":[-70.982613,41.582818]},"properties":{"cartodb_id":184,"id":82681,"street":" AMES ST at AMES WY","city":"Boston","state":"MA"}},{"type":"Feature","geometry":{"type":"Point","coordinates":[-70.566068,41.465181]},"properties":{"cartodb_id":185,"id":82682,"street":" DUDLEY ST at HARRISON AV","city":"Boston","state":"MA"}},{"type":"Feature","geometry":{"type":"Point","coordinates":[-71.08243,42.29492]},"properties":{"cartodb_id":186,"id":82683,"street":" KINGSDALE ST at BERNARD ST","city":"Boston","state":"MA"}},{"type":"Feature","geometry":{"type":"Point","coordinates":[-71.086193,42.27675]},"properties":{"cartodb_id":187,"id":82684,"street":" W SELDEN ST at MORTON ST","city":"Boston","state":"MA"}},{"type":"Feature","geometry":{"type":"Point","coordinates":[-71.07846,42.29564]},"properties":{"cartodb_id":188,"id":82685,"street":"197 NORWELL ST","city":"Boston","state":"MA"}},{"type":"Feature","geometry":{"type":"Point","coordinates":[-71.03819,42.145577]},"properties":{"cartodb_id":189,"id":82686,"street":" BLUE HILL AV at GLENWAY ST","city":"Boston","state":"MA"}},{"type":"Feature","geometry":{"type":"Point","coordinates":[-71.08605,42.28753]},"properties":{"cartodb_id":190,"id":82687,"street":" LUCERNE ST at CALLENDER ST","city":"Boston","state":"MA"}},{"type":"Feature","geometry":{"type":"Point","coordinates":[-71.155232,42.252558]},"properties":{"cartodb_id":191,"id":82688,"street":" BUSSEY ST","city":"Boston","state":"MA"}},{"type":"Feature","geometry":{"type":"Point","coordinates":[-71.06953,42.33172]},"properties":{"cartodb_id":192,"id":82689,"street":"115 SOUTHAMPTON ST","city":"Boston","state":"MA"}},{"type":"Feature","geometry":{"type":"Point","coordinates":[-71.12019,42.25016]},"properties":{"cartodb_id":193,"id":82690,"street":" DORCHESTER AV at NEPONSET AV","city":"Boston","state":"MA"}},{"type":"Feature","geometry":{"type":"Point","coordinates":[-70.627486,41.762721]},"properties":{"cartodb_id":194,"id":82691,"street":" GENEVA AV at OAKLEY ST","city":"Boston","state":"MA"}},{"type":"Feature","geometry":{"type":"Point","coordinates":[-71.08118,42.33542]},"properties":{"cartodb_id":195,"id":82692,"street":"625 SHAWMUT AV","city":"Boston","state":"MA"}},{"type":"Feature","geometry":{"type":"Point","coordinates":[-72.530719,41.784879]},"properties":{"cartodb_id":196,"id":82693,"street":"65 HOMESTEAD ST","city":"Boston","state":"MA"}},{"type":"Feature","geometry":{"type":"Point","coordinates":[-70.932705,41.616242]},"properties":{"cartodb_id":197,"id":82694,"street":"0 JENKINS ST at DORCHESTER ST","city":"Boston","state":"MA"}},{"type":"Feature","geometry":{"type":"Point","coordinates":[-71.101266,42.80875]},"properties":{"cartodb_id":198,"id":82695,"street":"00 MILTON ST at WOODROW AV","city":"Boston","state":"MA"}},{"type":"Feature","geometry":{"type":"Point","coordinates":[-71.05621,42.37852]},"properties":{"cartodb_id":199,"id":82696,"street":" WALFORD WY","city":"Boston","state":"MA"}},{"type":"Feature","geometry":{"type":"Point","coordinates":[-71.09648,42.33383]},"properties":{"cartodb_id":200,"id":82697,"street":"5 HORADAN WY","city":"Boston","state":"MA"}},{"type":"Feature","geometry":{"type":"Point","coordinates":[-70.96368,42.204181]},"properties":{"cartodb_id":201,"id":82698,"street":"103 HOMES AV","city":"Boston","state":"MA"}},{"type":"Feature","geometry":{"type":"Point","coordinates":[-71.08279,42.28191]},"properties":{"cartodb_id":202,"id":82699,"street":"107 EVANS ST","city":"Boston","state":"MA"}},{"type":"Feature","geometry":{"type":"Point","coordinates":[-70.926205,42.079551]},"properties":{"cartodb_id":203,"id":82700,"street":" GENEVA AV at COLUMBIA RD","city":"Boston","state":"MA"}},{"type":"Feature","geometry":{"type":"Point","coordinates":[-71.0448,42.2839]},"properties":{"cartodb_id":204,"id":82701,"street":"757 GALLIVAN BL","city":"Boston","state":"MA"}},{"type":"Feature","geometry":{"type":"Point","coordinates":[-71.08052,42.34476]},"properties":{"cartodb_id":205,"id":82702,"street":"00 W NEWTON ST","city":"Boston","state":"MA"}},{"type":"Feature","geometry":{"type":"Point","coordinates":[-72.643184,42.266225]},"properties":{"cartodb_id":206,"id":82703,"street":" RESERVATION RD","city":"Boston","state":"MA"}},{"type":"Feature","geometry":{"type":"Point","coordinates":[-71.08734,42.31018]},"properties":{"cartodb_id":207,"id":82704,"street":"79 ELM HILL AV","city":"Boston","state":"MA"}},{"type":"Feature","geometry":{"type":"Point","coordinates":[-71.076041,42.285439]},"properties":{"cartodb_id":208,"id":82705,"street":"9 PEACEVALE RD","city":"Boston","state":"MA"}},{"type":"Feature","geometry":{"type":"Point","coordinates":[-71.08052,42.34476]},"properties":{"cartodb_id":209,"id":82706,"street":"87 W NEWTON ST","city":"Boston","state":"MA"}},{"type":"Feature","geometry":{"type":"Point","coordinates":[-71.08243,42.29492]},"properties":{"cartodb_id":210,"id":82707,"street":" WALES ST at KINGSDALE ST","city":"Boston","state":"MA"}},{"type":"Feature","geometry":{"type":"Point","coordinates":[-71.08243,42.29492]},"properties":{"cartodb_id":211,"id":82708,"street":" WALES ST at KINGSDALE ST","city":"Boston","state":"MA"}},{"type":"Feature","geometry":{"type":"Point","coordinates":[-71.107361,42.239958]},"properties":{"cartodb_id":212,"id":82709,"street":" FAIRWAY ST at BLUE HILL AV","city":"Boston","state":"MA"}},{"type":"Feature","geometry":{"type":"Point","coordinates":[-122.032874,37.610386]},"properties":{"cartodb_id":213,"id":82710,"street":" GENEVA AV","city":"Boston","state":"MA"}},{"type":"Feature","geometry":{"type":"Point","coordinates":[-71.107361,42.239958]},"properties":{"cartodb_id":214,"id":82711,"street":" BLUE HILL AV at HARVARD ST","city":"Boston","state":"MA"}},{"type":"Feature","geometry":{"type":"Point","coordinates":[-70.818601,42.806357]},"properties":{"cartodb_id":215,"id":82712,"street":" BLUE HILL AV at W COTTAGE ST","city":"Boston","state":"MA"}},{"type":"Feature","geometry":{"type":"Point","coordinates":[-71.05692,42.3166]},"properties":{"cartodb_id":216,"id":82713,"street":" COLUMBIA RD at DORCHESTER AV","city":"Boston","state":"MA"}},{"type":"Feature","geometry":{"type":"Point","coordinates":[-71.0682,42.32363]},"properties":{"cartodb_id":217,"id":82714,"street":"93 BURRELL ST","city":"Boston","state":"MA"}},{"type":"Feature","geometry":{"type":"Point","coordinates":[-71.067382,42.291707]},"properties":{"cartodb_id":218,"id":82715,"street":"98 CENTRE ST","city":"Boston","state":"MA"}},{"type":"Feature","geometry":{"type":"Point","coordinates":[-71.087412,42.320086]},"properties":{"cartodb_id":219,"id":82716,"street":"62 BOWER ST","city":"Boston","state":"MA"}},{"type":"Feature","geometry":{"type":"Point","coordinates":[-71.33994,41.980611]},"properties":{"cartodb_id":220,"id":82717,"street":" SUMNER ST at HAVRE ST","city":"Boston","state":"MA"}},{"type":"Feature","geometry":{"type":"Point","coordinates":[-122.213268,37.788089]},"properties":{"cartodb_id":221,"id":82718,"street":"0 HUMBOLDT AV","city":"Boston","state":"MA"}},{"type":"Feature","geometry":{"type":"Point","coordinates":[-71.08052,42.34476]},"properties":{"cartodb_id":222,"id":82719,"street":"83 W NEWTON ST","city":"Boston","state":"MA"}},{"type":"Feature","geometry":{"type":"Point","coordinates":[-71.175002,42.088241]},"properties":{"cartodb_id":223,"id":82720,"street":" WASHINGTON ST at MORSE ST","city":"Boston","state":"MA"}},{"type":"Feature","geometry":{"type":"Point","coordinates":[-71.053575,41.635486]},"properties":{"cartodb_id":224,"id":82721,"street":"753 AMERICAN LEGION HY","city":"Boston","state":"MA"}},{"type":"Feature","geometry":{"type":"Point","coordinates":[-70.927256,42.214884]},"properties":{"cartodb_id":225,"id":82722,"street":"0 SHAWMUT AV at VERNON ST","city":"Boston","state":"MA"}},{"type":"Feature","geometry":{"type":"Point","coordinates":[-70.927256,42.214884]},"properties":{"cartodb_id":226,"id":82723,"street":"0 SHAWMUT AV at VERNON ST","city":"Boston","state":"MA"}},{"type":"Feature","geometry":{"type":"Point","coordinates":[-71.137735,42.354165]},"properties":{"cartodb_id":227,"id":82724,"street":"15 N BEACON ST at CAMBRIDGE ST","city":"Boston","state":"MA"}},{"type":"Feature","geometry":{"type":"Point","coordinates":[-71.139354,42.382185]},"properties":{"cartodb_id":228,"id":82725,"street":" HARVARD ST at STANDISH ST","city":"Boston","state":"MA"}},{"type":"Feature","geometry":{"type":"Point","coordinates":[-71.070209,42.322654]},"properties":{"cartodb_id":229,"id":82726,"street":"2 MARSHFIELD ST","city":"Boston","state":"MA"}},{"type":"Feature","geometry":{"type":"Point","coordinates":[-71.095835,42.317977]},"properties":{"cartodb_id":230,"id":82727,"street":"2950 WASHINGTON ST","city":"Boston","state":"MA"}},{"type":"Feature","geometry":{"type":"Point","coordinates":[-71.415604,42.273523]},"properties":{"cartodb_id":231,"id":82728,"street":"64 ARLINGTON ST","city":"Boston","state":"MA"}},{"type":"Feature","geometry":{"type":"Point","coordinates":[-71.07432,42.33673]},"properties":{"cartodb_id":232,"id":82729,"street":"00 WORCESTER SQ","city":"Boston","state":"MA"}},{"type":"Feature","geometry":{"type":"Point","coordinates":[-71.082336,42.380042]},"properties":{"cartodb_id":233,"id":82730,"street":"0 WASHINGTON ST","city":"Boston","state":"MA"}},{"type":"Feature","geometry":{"type":"Point","coordinates":[-71.05692,42.3166]},"properties":{"cartodb_id":234,"id":82731,"street":" DORCHESTER AV at EAST ST","city":"Boston","state":"MA"}},{"type":"Feature","geometry":{"type":"Point","coordinates":[-71.062691,42.351037]},"properties":{"cartodb_id":235,"id":82732,"street":"702 WASHINGTON ST","city":"Boston","state":"MA"}},{"type":"Feature","geometry":{"type":"Point","coordinates":[-121.833876,39.726467]},"properties":{"cartodb_id":236,"id":82733,"street":"254 E 9TH ST","city":"Boston","state":"MA"}},{"type":"Feature","geometry":{"type":"Point","coordinates":[-97.394061,37.266724]},"properties":{"cartodb_id":237,"id":82734,"street":"402 E 7TH ST","city":"Boston","state":"MA"}},{"type":"Feature","geometry":{"type":"Point","coordinates":[-71.107361,42.239958]},"properties":{"cartodb_id":238,"id":82735,"street":"0 CHENEY ST at BLUE HILL AV","city":"Boston","state":"MA"}},{"type":"Feature","geometry":{"type":"Point","coordinates":[-71.116764,42.384576]},"properties":{"cartodb_id":239,"id":82736,"street":"41 PRENTISS ST","city":"Boston","state":"MA"}},{"type":"Feature","geometry":{"type":"Point","coordinates":[-71.0835,42.30749]},"properties":{"cartodb_id":240,"id":82737,"street":"488 BLUE HILL AV","city":"Boston","state":"MA"}},{"type":"Feature","geometry":{"type":"Point","coordinates":[-70.860914,42.807581]},"properties":{"cartodb_id":241,"id":82738,"street":"00 TREMONT ST at BROMFIELD ST","city":"Boston","state":"MA"}},{"type":"Feature","geometry":{"type":"Point","coordinates":[-71.021081,42.079933]},"properties":{"cartodb_id":242,"id":82739,"street":" TALBOT AV at WALES ST","city":"Boston","state":"MA"}},{"type":"Feature","geometry":{"type":"Point","coordinates":[-71.101997,42.376798]},"properties":{"cartodb_id":243,"id":82740,"street":" HAROLD ST at CRAWFORD ST","city":"Boston","state":"MA"}},{"type":"Feature","geometry":{"type":"Point","coordinates":[-71.155721,42.692529]},"properties":{"cartodb_id":244,"id":82741,"street":"0 DORCHESTER ST at E 9TH ST","city":"Boston","state":"MA"}},{"type":"Feature","geometry":{"type":"Point","coordinates":[-81.278711,29.016559]},"properties":{"cartodb_id":245,"id":82742,"street":"908 MASSACHUSETTS AV","city":"Boston","state":"MA"}},{"type":"Feature","geometry":{"type":"Point","coordinates":[-71.107741,42.749717]},"properties":{"cartodb_id":246,"id":82743,"street":"0 M ST","city":"Boston","state":"MA"}},{"type":"Feature","geometry":{"type":"Point","coordinates":[-89.003811,40.740136]},"properties":{"cartodb_id":247,"id":82744,"street":"850 E 2ND ST","city":"Boston","state":"MA"}},{"type":"Feature","geometry":{"type":"Point","coordinates":[-71.096886,42.373902]},"properties":{"cartodb_id":248,"id":82745,"street":"131 TREMONT ST","city":"Boston","state":"MA"}},{"type":"Feature","geometry":{"type":"Point","coordinates":[-71.096886,42.373902]},"properties":{"cartodb_id":249,"id":82746,"street":"131 TREMONT ST","city":"Boston","state":"MA"}},{"type":"Feature","geometry":{"type":"Point","coordinates":[-71.06472,42.30463]},"properties":{"cartodb_id":250,"id":82747,"street":"95 DRAPER ST","city":"Boston","state":"MA"}},{"type":"Feature","geometry":{"type":"Point","coordinates":[-71.096655,42.373784]},"properties":{"cartodb_id":251,"id":82748,"street":"128 TREMONT ST","city":"Boston","state":"MA"}},{"type":"Feature","geometry":{"type":"Point","coordinates":[-76.516903,43.452918]},"properties":{"cartodb_id":252,"id":82749,"street":"164 W 7TH ST","city":"Boston","state":"MA"}},{"type":"Feature","geometry":{"type":"Point","coordinates":[-71.14137,42.34425]},"properties":{"cartodb_id":253,"id":82750,"street":"15 MELVIN AV","city":"Boston","state":"MA"}},{"type":"Feature","geometry":{"type":"Point","coordinates":[-71.362779,42.30699]},"properties":{"cartodb_id":254,"id":82751,"street":" TREMONT ST at LENOX ST","city":"Boston","state":"MA"}},{"type":"Feature","geometry":{"type":"Point","coordinates":[-70.867211,42.493958]},"properties":{"cartodb_id":255,"id":82752,"street":"45 SMITH ST","city":"Boston","state":"MA"}},{"type":"Feature","geometry":{"type":"Point","coordinates":[-71.13727,42.35668]},"properties":{"cartodb_id":256,"id":82753,"street":"00 BRAINTREE ST","city":"Boston","state":"MA"}},{"type":"Feature","geometry":{"type":"Point","coordinates":[-71.096786,42.326089]},"properties":{"cartodb_id":257,"id":82754,"street":" NEW HEATH ST at COLUMBUS AV","city":"Boston","state":"MA"}},{"type":"Feature","geometry":{"type":"Point","coordinates":[-71.07763,42.33547]},"properties":{"cartodb_id":258,"id":82755,"street":"1820 WASHINGTON ST","city":"Boston","state":"MA"}},{"type":"Feature","geometry":{"type":"Point","coordinates":[-90.337502,39.121326]},"properties":{"cartodb_id":259,"id":82756,"street":"15 EASTON AV","city":"Boston","state":"MA"}},{"type":"Feature","geometry":{"type":"Point","coordinates":[-71.06249,42.31842]},"properties":{"cartodb_id":260,"id":82757,"street":"18 ANNABEL ST","city":"Boston","state":"MA"}},{"type":"Feature","geometry":{"type":"Point","coordinates":[-71.107361,42.239958]},"properties":{"cartodb_id":261,"id":82758,"street":" BLUE HILL AV at ANSELL RD","city":"Boston","state":"MA"}},{"type":"Feature","geometry":{"type":"Point","coordinates":[-71.09159,42.31222]},"properties":{"cartodb_id":262,"id":82759,"street":"69 HOMESTEAD ST","city":"Boston","state":"MA"}},{"type":"Feature","geometry":{"type":"Point","coordinates":[-71.097563,42.417308]},"properties":{"cartodb_id":263,"id":82760,"street":" DUDLEY ST at VINE ST","city":"Boston","state":"MA"}},{"type":"Feature","geometry":{"type":"Point","coordinates":[-71.128643,42.478907]},"properties":{"cartodb_id":264,"id":82761,"street":"00 TREMONT ST","city":"Boston","state":"MA"}},{"type":"Feature","geometry":{"type":"Point","coordinates":[-71.0758,42.34097]},"properties":{"cartodb_id":265,"id":82762,"street":"85 W NEWTON ST","city":"Boston","state":"MA"}},{"type":"Feature","geometry":{"type":"Point","coordinates":[-70.934351,42.255132]},"properties":{"cartodb_id":266,"id":82763,"street":"0 CALDWELL ST at BRIGHTON ST","city":"Boston","state":"MA"}},{"type":"Feature","geometry":{"type":"Point","coordinates":[-82.465295,27.962937]},"properties":{"cartodb_id":267,"id":82764,"street":" MASSACHUSETTS AV at ENTERPRIS","city":"Boston","state":"MA"}},{"type":"Feature","geometry":{"type":"Point","coordinates":[-71.684654,42.11584]},"properties":{"cartodb_id":268,"id":82765,"street":"365 BORDER ST","city":"Boston","state":"MA"}},{"type":"Feature","geometry":{"type":"Point","coordinates":[-71.08553,42.28153]},"properties":{"cartodb_id":269,"id":82766,"street":" HANNON ST at MORTON ST","city":"Boston","state":"MA"}},{"type":"Feature","geometry":{"type":"Point","coordinates":[-75.125498,39.932406]},"properties":{"cartodb_id":270,"id":82767,"street":"250 MT VERNON ST","city":"Boston","state":"MA"}},{"type":"Feature","geometry":{"type":"Point","coordinates":[-72.620799,42.111156]},"properties":{"cartodb_id":271,"id":82768,"street":"39 FOX ST","city":"Boston","state":"MA"}},{"type":"Feature","geometry":{"type":"Point","coordinates":[-71.107361,42.239958]},"properties":{"cartodb_id":272,"id":82769,"street":" BLUE HILL AV at HARVARD ST","city":"Boston","state":"MA"}},{"type":"Feature","geometry":{"type":"Point","coordinates":[-71.153761,42.228305]},"properties":{"cartodb_id":273,"id":82770,"street":" COLUMBIA RD at STOUGHTON ST","city":"Boston","state":"MA"}},{"type":"Feature","geometry":{"type":"Point","coordinates":[-71.09063,42.31113]},"properties":{"cartodb_id":274,"id":82771,"street":" HUTCHINGS ST at ELM HILL","city":"Boston","state":"MA"}},{"type":"Feature","geometry":{"type":"Point","coordinates":[-71.09063,42.31113]},"properties":{"cartodb_id":275,"id":82772,"street":" HUTCHINGS ST at ELM HILL","city":"Boston","state":"MA"}},{"type":"Feature","geometry":{"type":"Point","coordinates":[-71.101424,42.332298]},"properties":{"cartodb_id":276,"id":82773,"street":" TREMONT ST at ST ALPHONSUS ST","city":"Boston","state":"MA"}},{"type":"Feature","geometry":{"type":"Point","coordinates":[-71.763381,42.297053]},"properties":{"cartodb_id":277,"id":82774,"street":" AMES ST at WESTVIEW ST","city":"Boston","state":"MA"}},{"type":"Feature","geometry":{"type":"Point","coordinates":[-71.05156,42.31034]},"properties":{"cartodb_id":278,"id":82775,"street":"154  SAVIN HILL AV","city":"Boston","state":"MA"}},{"type":"Feature","geometry":{"type":"Point","coordinates":[-70.893036,42.819225]},"properties":{"cartodb_id":279,"id":82776,"street":"N/A CRAWFORD ST at HAROLD ST","city":"Boston","state":"MA"}},{"type":"Feature","geometry":{"type":"Point","coordinates":[-71.06617,42.31846]},"properties":{"cartodb_id":280,"id":82777,"street":"15 WENDOVER ST","city":"Boston","state":"MA"}},{"type":"Feature","geometry":{"type":"Point","coordinates":[-71.06617,42.31846]},"properties":{"cartodb_id":281,"id":82778,"street":"15 WENDOVER ST","city":"Boston","state":"MA"}},{"type":"Feature","geometry":{"type":"Point","coordinates":[-71.828226,42.250448]},"properties":{"cartodb_id":282,"id":82779,"street":"20 WOODBINE ST","city":"Boston","state":"MA"}},{"type":"Feature","geometry":{"type":"Point","coordinates":[-71.07392,42.29021]},"properties":{"cartodb_id":283,"id":82780,"street":" WHITFIELD ST at TALBOT AV","city":"Boston","state":"MA"}},{"type":"Feature","geometry":{"type":"Point","coordinates":[-71.795258,42.243242]},"properties":{"cartodb_id":284,"id":82781,"street":"15 AMES ST","city":"Boston","state":"MA"}},{"type":"Feature","geometry":{"type":"Point","coordinates":[-70.99994,42.38403]},"properties":{"cartodb_id":285,"id":82782,"street":"1155 SARATOGA ST","city":"Boston","state":"MA"}},{"type":"Feature","geometry":{"type":"Point","coordinates":[-71.04356,42.33094]},"properties":{"cartodb_id":286,"id":82783,"street":"1410 COLUMBIA RD","city":"Boston","state":"MA"}},{"type":"Feature","geometry":{"type":"Point","coordinates":[-71.107361,42.239958]},"properties":{"cartodb_id":287,"id":82784,"street":" BLUE HILL AV at WOODVILLE ST","city":"Boston","state":"MA"}},{"type":"Feature","geometry":{"type":"Point","coordinates":[-71.107361,42.239958]},"properties":{"cartodb_id":288,"id":82785,"street":" BLUE HILL AV at WASHINGTON ST","city":"Boston","state":"MA"}},{"type":"Feature","geometry":{"type":"Point","coordinates":[-70.831758,41.626227]},"properties":{"cartodb_id":289,"id":82786,"street":" KERWIN ST at TALBOT AV","city":"Boston","state":"MA"}},{"type":"Feature","geometry":{"type":"Point","coordinates":[-78.877858,42.904096]},"properties":{"cartodb_id":290,"id":82787,"street":"00 SHAWMUT AV","city":"Boston","state":"MA"}},{"type":"Feature","geometry":{"type":"Point","coordinates":[-71.09063,42.31113]},"properties":{"cartodb_id":291,"id":82788,"street":" HUTCHINGS ST at ELM HILL","city":"Boston","state":"MA"}},{"type":"Feature","geometry":{"type":"Point","coordinates":[-71.117505,42.251162]},"properties":{"cartodb_id":292,"id":82789,"street":" PIERCE ST at FAIRMOUNT AV","city":"Boston","state":"MA"}},{"type":"Feature","geometry":{"type":"Point","coordinates":[-71.05692,42.3166]},"properties":{"cartodb_id":293,"id":82790,"street":" DORCHESTER AV at KING ST","city":"Boston","state":"MA"}},{"type":"Feature","geometry":{"type":"Point","coordinates":[-71.132775,42.760015]},"properties":{"cartodb_id":294,"id":82791,"street":" BLUE HILL AV at ESMOND ST","city":"Boston","state":"MA"}},{"type":"Feature","geometry":{"type":"Point","coordinates":[-71.09648,42.33383]},"properties":{"cartodb_id":295,"id":82792,"street":"5 HORADAN WY","city":"Boston","state":"MA"}},{"type":"Feature","geometry":{"type":"Point","coordinates":[-71.072694,42.351189]},"properties":{"cartodb_id":296,"id":82793,"street":" BOYLSTON ST","city":"Boston","state":"MA"}},{"type":"Feature","geometry":{"type":"Point","coordinates":[-71.08643,42.2804]},"properties":{"cartodb_id":297,"id":82794,"street":" ASTORIA ST","city":"Boston","state":"MA"}},{"type":"Feature","geometry":{"type":"Point","coordinates":[-71.08912,42.28173]},"properties":{"cartodb_id":298,"id":82795,"street":"16 SUTTON ST","city":"Boston","state":"MA"}},{"type":"Feature","geometry":{"type":"Point","coordinates":[-122.033226,37.610386]},"properties":{"cartodb_id":299,"id":82796,"street":"106 GENEVA AV","city":"Boston","state":"MA"}},{"type":"Feature","geometry":{"type":"Point","coordinates":[-71.09216,42.33592]},"properties":{"cartodb_id":300,"id":82797,"street":"30 ANNUNCIATION RD","city":"Boston","state":"MA"}},{"type":"Feature","geometry":{"type":"Point","coordinates":[-71.072694,42.351189]},"properties":{"cartodb_id":301,"id":82798,"street":" BOYLSTON ST","city":"Boston","state":"MA"}},{"type":"Feature","geometry":{"type":"Point","coordinates":[-71.080513,42.335305]},"properties":{"cartodb_id":302,"id":82799,"street":"618 SHAWMUT AV","city":"Boston","state":"MA"}},{"type":"Feature","geometry":{"type":"Point","coordinates":[-70.956533,42.199929]},"properties":{"cartodb_id":303,"id":82800,"street":"0 WASHINGTON ST at WINTER ST","city":"Boston","state":"MA"}},{"type":"Feature","geometry":{"type":"Point","coordinates":[-73.079092,41.321943]},"properties":{"cartodb_id":304,"id":82801,"street":"56 MT PLEASANT ST","city":"Boston","state":"MA"}},{"type":"Feature","geometry":{"type":"Point","coordinates":[-71.075577,42.460564]},"properties":{"cartodb_id":305,"id":82802,"street":"0 WASHINGTON ST at OAKLAND ST","city":"Boston","state":"MA"}},{"type":"Feature","geometry":{"type":"Point","coordinates":[-71.074804,42.42902]},"properties":{"cartodb_id":306,"id":82803,"street":"36 MAPLE ST","city":"Boston","state":"MA"}},{"type":"Feature","geometry":{"type":"Point","coordinates":[-71.454387,42.438934]},"properties":{"cartodb_id":307,"id":82804,"street":" ELM ST at EVERETT ST","city":"Boston","state":"MA"}},{"type":"Feature","geometry":{"type":"Point","coordinates":[-70.926205,42.079551]},"properties":{"cartodb_id":308,"id":82805,"street":" GENEVA AV at PARK ST","city":"Boston","state":"MA"}},{"type":"Feature","geometry":{"type":"Point","coordinates":[-71.107361,42.239958]},"properties":{"cartodb_id":309,"id":82806,"street":" WASHINGTON ST at BLUE HILL AV","city":"Boston","state":"MA"}},{"type":"Feature","geometry":{"type":"Point","coordinates":[-75.98675,40.313766]},"properties":{"cartodb_id":310,"id":82807,"street":"1444 DORCHESTER AV","city":"Boston","state":"MA"}},{"type":"Feature","geometry":{"type":"Point","coordinates":[-71.101424,42.332298]},"properties":{"cartodb_id":311,"id":82808,"street":" TREMONT ST at ST ALPHONSUS ST","city":"Boston","state":"MA"}},{"type":"Feature","geometry":{"type":"Point","coordinates":[-71.09151,42.31218]},"properties":{"cartodb_id":312,"id":82809,"street":"71 HOMESTEAD ST","city":"Boston","state":"MA"}},{"type":"Feature","geometry":{"type":"Point","coordinates":[-71.448776,42.434855]},"properties":{"cartodb_id":313,"id":82810,"street":" WARREN ST at WASHINGTON ST","city":"Boston","state":"MA"}},{"type":"Feature","geometry":{"type":"Point","coordinates":[-71.0847,42.27432]},"properties":{"cartodb_id":314,"id":82811,"street":"14 DONWOOD TR","city":"Boston","state":"MA"}},{"type":"Feature","geometry":{"type":"Point","coordinates":[-71.055228,42.450679]},"properties":{"cartodb_id":315,"id":82812,"street":" MERIDIAN ST at LEXINGTON ST","city":"Boston","state":"MA"}},{"type":"Feature","geometry":{"type":"Point","coordinates":[-71.08831,42.31041]},"properties":{"cartodb_id":316,"id":82813,"street":"151 HOMESTEAD ST","city":"Boston","state":"MA"}},{"type":"Feature","geometry":{"type":"Point","coordinates":[-71.08243,42.29492]},"properties":{"cartodb_id":317,"id":82814,"street":"71 KINGSDALE ST","city":"Boston","state":"MA"}},{"type":"Feature","geometry":{"type":"Point","coordinates":[-71.067448,42.456629]},"properties":{"cartodb_id":318,"id":82815,"street":" ESSEX ST","city":"Boston","state":"MA"}},{"type":"Feature","geometry":{"type":"Point","coordinates":[-71.417756,42.052631]},"properties":{"cartodb_id":319,"id":82816,"street":" WASHINGTON ST","city":"Boston","state":"MA"}},{"type":"Feature","geometry":{"type":"Point","coordinates":[-71.094106,42.260076]},"properties":{"cartodb_id":320,"id":82817,"street":"203 BLUE HILL AV","city":"Boston","state":"MA"}},{"type":"Feature","geometry":{"type":"Point","coordinates":[-71.150664,42.376705]},"properties":{"cartodb_id":321,"id":82818,"street":" HAROLD ST at HOLWORTHY ST","city":"Boston","state":"MA"}},{"type":"Feature","geometry":{"type":"Point","coordinates":[-71.803231,42.254074]},"properties":{"cartodb_id":322,"id":82819,"street":" CENTRE ST at LAMARTINE ST","city":"Boston","state":"MA"}},{"type":"Feature","geometry":{"type":"Point","coordinates":[-71.12489,42.28788]},"properties":{"cartodb_id":323,"id":82820,"street":" WASHINGTON ST at FIRTH RD","city":"Boston","state":"MA"}},{"type":"Feature","geometry":{"type":"Point","coordinates":[-71.12156,42.28959]},"properties":{"cartodb_id":324,"id":82821,"street":" FAWNDALE RD at GRANFIELD AV","city":"Boston","state":"MA"}},{"type":"Feature","geometry":{"type":"Point","coordinates":[-71.068682,42.363214]},"properties":{"cartodb_id":325,"id":82822,"street":"55 FRUIT ST","city":"Boston","state":"MA"}},{"type":"Feature","geometry":{"type":"Point","coordinates":[-71.07669,42.35058]},"properties":{"cartodb_id":326,"id":82823,"street":"581 BOYLSTON ST","city":"Boston","state":"MA"}},{"type":"Feature","geometry":{"type":"Point","coordinates":[-71.062679,42.343631]},"properties":{"cartodb_id":327,"id":82824,"street":"00 TRAVELER ST","city":"Boston","state":"MA"}},{"type":"Feature","geometry":{"type":"Point","coordinates":[-70.965303,42.20604]},"properties":{"cartodb_id":328,"id":82825,"street":"225 SUMMER ST","city":"Boston","state":"MA"}},{"type":"Feature","geometry":{"type":"Point","coordinates":[-77.060671,38.810312]},"properties":{"cartodb_id":329,"id":82826,"street":"00 COMMONWEALTH AV at WARREN A","city":"Boston","state":"MA"}},{"type":"Feature","geometry":{"type":"Point","coordinates":[-71.396497,42.079517]},"properties":{"cartodb_id":330,"id":82827,"street":"44 WINTER ST","city":"Boston","state":"MA"}},{"type":"Feature","geometry":{"type":"Point","coordinates":[-70.673095,42.639161]},"properties":{"cartodb_id":331,"id":82828,"street":"510 WASHINGTON ST","city":"Boston","state":"MA"}},{"type":"Feature","geometry":{"type":"Point","coordinates":[-71.06399,42.348048]},"properties":{"cartodb_id":332,"id":82829,"street":"888  WASHINGTON ST","city":"Boston","state":"MA"}},{"type":"Feature","geometry":{"type":"Point","coordinates":[-71.06017,42.35704]},"properties":{"cartodb_id":333,"id":82830,"street":"45 PROVINCE ST","city":"Boston","state":"MA"}},{"type":"Feature","geometry":{"type":"Point","coordinates":[-71.09433,42.33432]},"properties":{"cartodb_id":334,"id":82831,"street":"61 PRENTISS ST","city":"Boston","state":"MA"}},{"type":"Feature","geometry":{"type":"Point","coordinates":[-71.264336,42.136014]},"properties":{"cartodb_id":335,"id":82832,"street":" NORFOLK ST","city":"Boston","state":"MA"}},{"type":"Feature","geometry":{"type":"Point","coordinates":[-71.097563,42.417308]},"properties":{"cartodb_id":336,"id":82833,"street":" DUDLEY ST at VIRGINIA ST","city":"Boston","state":"MA"}},{"type":"Feature","geometry":{"type":"Point","coordinates":[-71.08358,42.28412]},"properties":{"cartodb_id":337,"id":82834,"street":" BALLOU AV at MOUNTAIN AV","city":"Boston","state":"MA"}},{"type":"Feature","geometry":{"type":"Point","coordinates":[-71.422531,42.269655]},"properties":{"cartodb_id":338,"id":82835,"street":"67 WINTHROP ST","city":"Boston","state":"MA"}},{"type":"Feature","geometry":{"type":"Point","coordinates":[-71.059899,42.351917]},"properties":{"cartodb_id":339,"id":82836,"street":"19 EDINBORO ST","city":"Boston","state":"MA"}},{"type":"Feature","geometry":{"type":"Point","coordinates":[-71.128643,42.478907]},"properties":{"cartodb_id":340,"id":82837,"street":"0 TREMONT ST","city":"Boston","state":"MA"}},{"type":"Feature","geometry":{"type":"Point","coordinates":[-71.053575,41.635486]},"properties":{"cartodb_id":341,"id":82838,"street":" AMERICAN LEGION HY at FRANKLI","city":"Boston","state":"MA"}},{"type":"Feature","geometry":{"type":"Point","coordinates":[-71.205357,42.369729]},"properties":{"cartodb_id":342,"id":82839,"street":"113 EVANS ST","city":"Boston","state":"MA"}},{"type":"Feature","geometry":{"type":"Point","coordinates":[-71.405153,42.278635]},"properties":{"cartodb_id":343,"id":82840,"street":" MORTON ST","city":"Boston","state":"MA"}},{"type":"Feature","geometry":{"type":"Point","coordinates":[-70.860651,42.795384]},"properties":{"cartodb_id":344,"id":82841,"street":"0 COMMERCIAL ST at HANOVER ST","city":"Boston","state":"MA"}},{"type":"Feature","geometry":{"type":"Point","coordinates":[-71.212688,42.356502]},"properties":{"cartodb_id":345,"id":82842,"street":" EDINBORO ST at ESSEX ST","city":"Boston","state":"MA"}},{"type":"Feature","geometry":{"type":"Point","coordinates":[-71.08865,42.33395]},"properties":{"cartodb_id":346,"id":82843,"street":"25 WHITTIER ST","city":"Boston","state":"MA"}},{"type":"Feature","geometry":{"type":"Point","coordinates":[-71.174387,42.352235]},"properties":{"cartodb_id":347,"id":82844,"street":" PLAYSTEAD RD","city":"Boston","state":"MA"}},{"type":"Feature","geometry":{"type":"Point","coordinates":[-71.058129,42.298205]},"properties":{"cartodb_id":348,"id":82845,"street":" GIBSON ST","city":"Boston","state":"MA"}},{"type":"Feature","geometry":{"type":"Point","coordinates":[-71.149083,41.918374]},"properties":{"cartodb_id":349,"id":82846,"street":"42 WORCESTER ST","city":"Boston","state":"MA"}},{"type":"Feature","geometry":{"type":"Point","coordinates":[-71.171277,42.353812]},"properties":{"cartodb_id":350,"id":82847,"street":"31 PRESENTATION RD","city":"Boston","state":"MA"}},{"type":"Feature","geometry":{"type":"Point","coordinates":[-71.0789,42.33531]},"properties":{"cartodb_id":351,"id":82848,"street":"1855 WASHINGTON ST","city":"Boston","state":"MA"}},{"type":"Feature","geometry":{"type":"Point","coordinates":[-71.035048,42.382719]},"properties":{"cartodb_id":352,"id":82849,"street":"146 CONDOR ST","city":"Boston","state":"MA"}},{"type":"Feature","geometry":{"type":"Point","coordinates":[-71.07744,42.2965]},"properties":{"cartodb_id":353,"id":82850,"street":"10 MILLET ST","city":"Boston","state":"MA"}},{"type":"Feature","geometry":{"type":"Point","coordinates":[-71.08521,42.30569]},"properties":{"cartodb_id":354,"id":82851,"street":"300 SEAVER ST","city":"Boston","state":"MA"}},{"type":"Feature","geometry":{"type":"Point","coordinates":[-71.809243,42.263125]},"properties":{"cartodb_id":355,"id":82852,"street":"1 CONGRESS ST","city":"Boston","state":"MA"}},{"type":"Feature","geometry":{"type":"Point","coordinates":[-70.934961,41.988007]},"properties":{"cartodb_id":356,"id":82853,"street":"0 HAYWARD PL","city":"Boston","state":"MA"}},{"type":"Feature","geometry":{"type":"Point","coordinates":[-70.934961,41.988007]},"properties":{"cartodb_id":357,"id":82854,"street":"0 HAYWARD PL","city":"Boston","state":"MA"}},{"type":"Feature","geometry":{"type":"Point","coordinates":[-71.0638,42.35216]},"properties":{"cartodb_id":358,"id":82855,"street":"40 BOYLSTON ST","city":"Boston","state":"MA"}},{"type":"Feature","geometry":{"type":"Point","coordinates":[-73.260838,42.439999]},"properties":{"cartodb_id":359,"id":82856,"street":"75 BOYLSTON ST","city":"Boston","state":"MA"}},{"type":"Feature","geometry":{"type":"Point","coordinates":[-71.062691,42.351037]},"properties":{"cartodb_id":360,"id":82857,"street":"702 WASHINGTON ST","city":"Boston","state":"MA"}},{"type":"Feature","geometry":{"type":"Point","coordinates":[-71.073738,42.335402]},"properties":{"cartodb_id":361,"id":82858,"street":"0 BEACH ST at HARRISON AV","city":"Boston","state":"MA"}},{"type":"Feature","geometry":{"type":"Point","coordinates":[-71.347413,42.260943]},"properties":{"cartodb_id":362,"id":82859,"street":" HOPEWELL RD at OSCEOLA ST","city":"Boston","state":"MA"}},{"type":"Feature","geometry":{"type":"Point","coordinates":[-71.11861,42.29442]},"properties":{"cartodb_id":363,"id":82860,"street":"8 BROOKWAY RD","city":"Boston","state":"MA"}},{"type":"Feature","geometry":{"type":"Point","coordinates":[-71.25512,42.323194]},"properties":{"cartodb_id":364,"id":82861,"street":"93 RIVER ST","city":"Boston","state":"MA"}},{"type":"Feature","geometry":{"type":"Point","coordinates":[-71.25512,42.323194]},"properties":{"cartodb_id":365,"id":82862,"street":"93 RIVER ST","city":"Boston","state":"MA"}},{"type":"Feature","geometry":{"type":"Point","coordinates":[-71.08133,42.2781]},"properties":{"cartodb_id":366,"id":82863,"street":" WOODBOLE AV at STANDARD ST","city":"Boston","state":"MA"}},{"type":"Feature","geometry":{"type":"Point","coordinates":[-70.691133,42.138268]},"properties":{"cartodb_id":367,"id":82864,"street":" NORFOLK AV at MARSHFIELD ST","city":"Boston","state":"MA"}},{"type":"Feature","geometry":{"type":"Point","coordinates":[-71.057553,42.461824]},"properties":{"cartodb_id":368,"id":82865,"street":" BURRELL ST at BATCHELDER ST","city":"Boston","state":"MA"}},{"type":"Feature","geometry":{"type":"Point","coordinates":[-71.859984,42.048021]},"properties":{"cartodb_id":369,"id":82866,"street":"0 BEACON ST at PARK ST","city":"Boston","state":"MA"}},{"type":"Feature","geometry":{"type":"Point","coordinates":[-72.237495,42.592442]},"properties":{"cartodb_id":370,"id":82867,"street":"90 CANAL ST","city":"Boston","state":"MA"}},{"type":"Feature","geometry":{"type":"Point","coordinates":[-71.13784,42.28882]},"properties":{"cartodb_id":371,"id":82868,"street":"1 CONGREVE ST","city":"Boston","state":"MA"}},{"type":"Feature","geometry":{"type":"Point","coordinates":[-71.0638,42.35216]},"properties":{"cartodb_id":372,"id":82869,"street":"40 BOYLSTON ST","city":"Boston","state":"MA"}},{"type":"Feature","geometry":{"type":"Point","coordinates":[-71.10859,42.31786]},"properties":{"cartodb_id":373,"id":82870,"street":"39 BOYLSTON ST","city":"Boston","state":"MA"}},{"type":"Feature","geometry":{"type":"Point","coordinates":[-71.054918,42.3412]},"properties":{"cartodb_id":374,"id":82871,"street":"101 W BROADWAY","city":"Boston","state":"MA"}},{"type":"Feature","geometry":{"type":"Point","coordinates":[-71.07123,42.2835]},"properties":{"cartodb_id":375,"id":82872,"street":"800 WASHINGTON ST","city":"Boston","state":"MA"}},{"type":"Feature","geometry":{"type":"Point","coordinates":[-71.107361,42.239958]},"properties":{"cartodb_id":376,"id":82873,"street":" GEORGIA ST at BLUE HILL AV","city":"Boston","state":"MA"}},{"type":"Feature","geometry":{"type":"Point","coordinates":[-71.809243,42.263125]},"properties":{"cartodb_id":377,"id":82874,"street":"1 CONGRESS ST","city":"Boston","state":"MA"}},{"type":"Feature","geometry":{"type":"Point","coordinates":[-71.809243,42.263125]},"properties":{"cartodb_id":378,"id":82875,"street":"1 CONGRESS ST","city":"Boston","state":"MA"}},{"type":"Feature","geometry":{"type":"Point","coordinates":[-71.08435,42.28519]},"properties":{"cartodb_id":379,"id":82876,"street":"42 MASCOT ST","city":"Boston","state":"MA"}},{"type":"Feature","geometry":{"type":"Point","coordinates":[-71.111,42.27297]},"properties":{"cartodb_id":380,"id":82877,"street":"67 ANNAFRAN ST","city":"Boston","state":"MA"}},{"type":"Feature","geometry":{"type":"Point","coordinates":[-72.65392,42.107422]},"properties":{"cartodb_id":381,"id":82878,"street":"28 OXFORD PL","city":"Boston","state":"MA"}},{"type":"Feature","geometry":{"type":"Point","coordinates":[-72.65392,42.107422]},"properties":{"cartodb_id":382,"id":82879,"street":"28 OXFORD PL","city":"Boston","state":"MA"}},{"type":"Feature","geometry":{"type":"Point","coordinates":[-74.575772,39.967536]},"properties":{"cartodb_id":383,"id":82880,"street":"1865 COLUMBUS AV","city":"Boston","state":"MA"}},{"type":"Feature","geometry":{"type":"Point","coordinates":[-71.062147,42.354295]},"properties":{"cartodb_id":384,"id":82881,"street":"521 WASHINGTON ST","city":"Boston","state":"MA"}},{"type":"Feature","geometry":{"type":"Point","coordinates":[-71.06586,42.34847]},"properties":{"cartodb_id":385,"id":82882,"street":"342 TREMONT ST","city":"Boston","state":"MA"}},{"type":"Feature","geometry":{"type":"Point","coordinates":[-71.018554,42.386192]},"properties":{"cartodb_id":386,"id":82883,"street":"175 MCCLELLAN HY","city":"Boston","state":"MA"}},{"type":"Feature","geometry":{"type":"Point","coordinates":[-71.137304,42.34791]},"properties":{"cartodb_id":387,"id":82884,"street":" HARVARD AV at COMMONWEALTH AV","city":"Boston","state":"MA"}},{"type":"Feature","geometry":{"type":"Point","coordinates":[-71.055678,42.338004]},"properties":{"cartodb_id":388,"id":82885,"street":"3 DALESSIO CT","city":"Boston","state":"MA"}},{"type":"Feature","geometry":{"type":"Point","coordinates":[-71.08444,42.30448]},"properties":{"cartodb_id":389,"id":82886,"street":"576 BLUE HILL AV","city":"Boston","state":"MA"}},{"type":"Feature","geometry":{"type":"Point","coordinates":[-71.083505,42.42274]},"properties":{"cartodb_id":390,"id":82887,"street":"0 TOWNSEND ST at CRESTWOOD PK","city":"Boston","state":"MA"}},{"type":"Feature","geometry":{"type":"Point","coordinates":[-71.128643,42.478907]},"properties":{"cartodb_id":391,"id":82888,"street":" TREMONT ST","city":"Boston","state":"MA"}},{"type":"Feature","geometry":{"type":"Point","coordinates":[-71.09281,42.33487]},"properties":{"cartodb_id":392,"id":82889,"street":"54 ANNUNCIATION RD","city":"Boston","state":"MA"}},{"type":"Feature","geometry":{"type":"Point","coordinates":[-71.09447,42.28677]},"properties":{"cartodb_id":393,"id":82890,"street":" ESTELLA ST at MORTON ST","city":"Boston","state":"MA"}},{"type":"Feature","geometry":{"type":"Point","coordinates":[-71.107361,42.239958]},"properties":{"cartodb_id":394,"id":82891,"street":" BLUE HILL AV at FRONTENAC ST","city":"Boston","state":"MA"}},{"type":"Feature","geometry":{"type":"Point","coordinates":[-71.07824,42.30872]},"properties":{"cartodb_id":395,"id":82892,"street":"0 DEVON ST","city":"Boston","state":"MA"}},{"type":"Feature","geometry":{"type":"Point","coordinates":[-71.362779,42.30699]},"properties":{"cartodb_id":396,"id":82893,"street":"00 LENOX ST","city":"Boston","state":"MA"}},{"type":"Feature","geometry":{"type":"Point","coordinates":[-71.08082,42.3378]},"properties":{"cartodb_id":397,"id":82894,"street":"95 CAMDEN ST","city":"Boston","state":"MA"}},{"type":"Feature","geometry":{"type":"Point","coordinates":[-71.06389,42.32831]},"properties":{"cartodb_id":398,"id":82895,"street":"5 ALLSTATE RD","city":"Boston","state":"MA"}},{"type":"Feature","geometry":{"type":"Point","coordinates":[-71.107361,42.239958]},"properties":{"cartodb_id":399,"id":82896,"street":"0 BLUE HILL AV at JULIAN ST","city":"Boston","state":"MA"}},{"type":"Feature","geometry":{"type":"Point","coordinates":[-71.09159,42.31222]},"properties":{"cartodb_id":400,"id":82897,"street":"69 HOMESTEAD ST","city":"Boston","state":"MA"}},{"type":"Feature","geometry":{"type":"Point","coordinates":[-71.10209,42.32311]},"properties":{"cartodb_id":401,"id":82898,"street":"297 CENTRE ST","city":"Boston","state":"MA"}},{"type":"Feature","geometry":{"type":"Point","coordinates":[-71.09047,42.28018]},"properties":{"cartodb_id":402,"id":82899,"street":" NORFOLK ST at CLARKWOOD ST","city":"Boston","state":"MA"}},{"type":"Feature","geometry":{"type":"Point","coordinates":[-71.05608,42.33858]},"properties":{"cartodb_id":403,"id":82900,"street":" DALESSIO CT","city":"Boston","state":"MA"}},{"type":"Feature","geometry":{"type":"Point","coordinates":[-71.04773,42.33652]},"properties":{"cartodb_id":404,"id":82901,"street":"423 W BROADWAY","city":"Boston","state":"MA"}},{"type":"Feature","geometry":{"type":"Point","coordinates":[-71.417756,42.052631]},"properties":{"cartodb_id":405,"id":82902,"street":" WASHINGTON ST at NEW WASHINGT","city":"Boston","state":"MA"}},{"type":"Feature","geometry":{"type":"Point","coordinates":[-71.121921,42.293253]},"properties":{"cartodb_id":406,"id":82903,"street":" ARCHDALE RD at WASHINGTON ST","city":"Boston","state":"MA"}},{"type":"Feature","geometry":{"type":"Point","coordinates":[-71.08571,42.29879]},"properties":{"cartodb_id":407,"id":82904,"street":"90 ESMOND ST","city":"Boston","state":"MA"}},{"type":"Feature","geometry":{"type":"Point","coordinates":[-71.268442,42.474658]},"properties":{"cartodb_id":408,"id":82905,"street":"10 ABBOTTSFORD ST","city":"Boston","state":"MA"}},{"type":"Feature","geometry":{"type":"Point","coordinates":[-71.07831,42.30677]},"properties":{"cartodb_id":409,"id":82906,"street":" COLUMBIA RD at OLDFIELDS RD","city":"Boston","state":"MA"}},{"type":"Feature","geometry":{"type":"Point","coordinates":[-71.112783,42.399052]},"properties":{"cartodb_id":410,"id":82907,"street":" GENEVA AV at JOSEPHINE ST","city":"Boston","state":"MA"}},{"type":"Feature","geometry":{"type":"Point","coordinates":[-71.030798,42.388309]},"properties":{"cartodb_id":411,"id":82908,"street":" MAVERICK ST at HENRY ST","city":"Boston","state":"MA"}},{"type":"Feature","geometry":{"type":"Point","coordinates":[-71.09504,42.31496]},"properties":{"cartodb_id":412,"id":82909,"street":"20 WARDMAN RD","city":"Boston","state":"MA"}},{"type":"Feature","geometry":{"type":"Point","coordinates":[-73.284598,42.366692]},"properties":{"cartodb_id":413,"id":82910,"street":" ASPINWALL RD at WASHINGTON ST","city":"Boston","state":"MA"}},{"type":"Feature","geometry":{"type":"Point","coordinates":[-71.06874,42.35136]},"properties":{"cartodb_id":414,"id":82911,"street":"8 PARK PLAZA","city":"Boston","state":"MA"}},{"type":"Feature","geometry":{"type":"Point","coordinates":[-71.453488,42.429339]},"properties":{"cartodb_id":415,"id":82912,"street":"00 DARTMOUTH ST","city":"Boston","state":"MA"}},{"type":"Feature","geometry":{"type":"Point","coordinates":[-82.465295,27.962937]},"properties":{"cartodb_id":416,"id":82913,"street":"00 MASSACHUSETTS AV","city":"Boston","state":"MA"}},{"type":"Feature","geometry":{"type":"Point","coordinates":[-71.09121,42.28188]},"properties":{"cartodb_id":417,"id":82914,"street":" WOOLSON ST at SUTTON ST","city":"Boston","state":"MA"}},{"type":"Feature","geometry":{"type":"Point","coordinates":[-71.09545,42.3155]},"properties":{"cartodb_id":418,"id":82915,"street":" WALNUT PK at WALDREN RD","city":"Boston","state":"MA"}},{"type":"Feature","geometry":{"type":"Point","coordinates":[-71.085845,42.315364]},"properties":{"cartodb_id":419,"id":82916,"street":"29 WYOMING ST","city":"Boston","state":"MA"}},{"type":"Feature","geometry":{"type":"Point","coordinates":[-78.88608,42.89539]},"properties":{"cartodb_id":420,"id":82917,"street":"00 E BROADWAY at DORCHESTER ST","city":"Boston","state":"MA"}},{"type":"Feature","geometry":{"type":"Point","coordinates":[-71.07098,42.34626]},"properties":{"cartodb_id":421,"id":82918,"street":"00 APPLETON ST","city":"Boston","state":"MA"}},{"type":"Feature","geometry":{"type":"Point","coordinates":[-82.463632,27.944278]},"properties":{"cartodb_id":422,"id":82919,"street":"887 HYDE PARK AV","city":"Boston","state":"MA"}},{"type":"Feature","geometry":{"type":"Point","coordinates":[-70.931026,42.576721]},"properties":{"cartodb_id":423,"id":82920,"street":" DRAPER ST at BOWDOIN ST","city":"Boston","state":"MA"}},{"type":"Feature","geometry":{"type":"Point","coordinates":[-71.059541,42.376517]},"properties":{"cartodb_id":424,"id":82921,"street":" MONUMENT SQ","city":"Boston","state":"MA"}},{"type":"Feature","geometry":{"type":"Point","coordinates":[-82.463632,27.944278]},"properties":{"cartodb_id":425,"id":82922,"street":"978 HYDE PARK AV","city":"Boston","state":"MA"}},{"type":"Feature","geometry":{"type":"Point","coordinates":[-71.164108,42.719428]},"properties":{"cartodb_id":426,"id":82923,"street":" BORDER ST at EUTAW ST","city":"Boston","state":"MA"}},{"type":"Feature","geometry":{"type":"Point","coordinates":[-71.302596,42.542597]},"properties":{"cartodb_id":427,"id":82924,"street":" EVANS ST at DYER ST","city":"Boston","state":"MA"}},{"type":"Feature","geometry":{"type":"Point","coordinates":[-71.016244,42.242629]},"properties":{"cartodb_id":428,"id":82925,"street":"00 COPELAND ST","city":"Boston","state":"MA"}},{"type":"Feature","geometry":{"type":"Point","coordinates":[-72.602806,42.535844]},"properties":{"cartodb_id":429,"id":82926,"street":" GREENFIELD RD at HARMON ST","city":"Boston","state":"MA"}},{"type":"Feature","geometry":{"type":"Point","coordinates":[-71.547787,42.348127]},"properties":{"cartodb_id":430,"id":82927,"street":"46 WASHINGTON ST","city":"Boston","state":"MA"}},{"type":"Feature","geometry":{"type":"Point","coordinates":[-71.547787,42.348127]},"properties":{"cartodb_id":431,"id":82928,"street":"46 WASHINGTON ST","city":"Boston","state":"MA"}},{"type":"Feature","geometry":{"type":"Point","coordinates":[-71.264336,42.136014]},"properties":{"cartodb_id":432,"id":82929,"street":"0 HARVARD ST at NORFOLK ST","city":"Boston","state":"MA"}},{"type":"Feature","geometry":{"type":"Point","coordinates":[-71.0532,42.32671]},"properties":{"cartodb_id":433,"id":82930,"street":"0 GAVIN WY at LOGAN WY","city":"Boston","state":"MA"}},{"type":"Feature","geometry":{"type":"Point","coordinates":[-71.014389,42.291125]},"properties":{"cartodb_id":434,"id":82931,"street":"00 LANSDOWNE ST","city":"Boston","state":"MA"}},{"type":"Feature","geometry":{"type":"Point","coordinates":[-71.06807,42.30212]},"properties":{"cartodb_id":435,"id":82932,"street":"77 TOPLIFF ST","city":"Boston","state":"MA"}},{"type":"Feature","geometry":{"type":"Point","coordinates":[-71.155951,42.432179]},"properties":{"cartodb_id":436,"id":82933,"street":" MYSTIC ST at WASHINGTON ST","city":"Boston","state":"MA"}},{"type":"Feature","geometry":{"type":"Point","coordinates":[-70.538163,41.574842]},"properties":{"cartodb_id":437,"id":82934,"street":" RIVER ST at EDGEWATER DR","city":"Boston","state":"MA"}},{"type":"Feature","geometry":{"type":"Point","coordinates":[-71.100823,42.358291]},"properties":{"cartodb_id":438,"id":82935,"street":"00 ALBANY ST","city":"Boston","state":"MA"}},{"type":"Feature","geometry":{"type":"Point","coordinates":[-71.0224,42.082619]},"properties":{"cartodb_id":439,"id":82936,"street":"0 L ST at E BROADWAY","city":"Boston","state":"MA"}},{"type":"Feature","geometry":{"type":"Point","coordinates":[-71.417756,42.052631]},"properties":{"cartodb_id":440,"id":82937,"street":"00 WASHINGTON ST at WELLSMERE","city":"Boston","state":"MA"}},{"type":"Feature","geometry":{"type":"Point","coordinates":[-71.823787,42.254441]},"properties":{"cartodb_id":441,"id":82938,"street":" DEWEY ST","city":"Boston","state":"MA"}},{"type":"Feature","geometry":{"type":"Point","coordinates":[-71.08622,42.295475]},"properties":{"cartodb_id":442,"id":82939,"street":" VESTA RD","city":"Boston","state":"MA"}},{"type":"Feature","geometry":{"type":"Point","coordinates":[-122.213268,37.788089]},"properties":{"cartodb_id":443,"id":82940,"street":"0 HUMBOLDT AV","city":"Boston","state":"MA"}},{"type":"Feature","geometry":{"type":"Point","coordinates":[-71.087072,42.433804]},"properties":{"cartodb_id":444,"id":82941,"street":" BOWER ST","city":"Boston","state":"MA"}},{"type":"Feature","geometry":{"type":"Point","coordinates":[-71.07127,42.32161]},"properties":{"cartodb_id":445,"id":82942,"street":"0 COLUMBIA RD at E COTTAGE ST","city":"Boston","state":"MA"}},{"type":"Feature","geometry":{"type":"Point","coordinates":[-71.08622,42.295475]},"properties":{"cartodb_id":446,"id":82943,"street":" VESTA RD at HARVARD ST","city":"Boston","state":"MA"}},{"type":"Feature","geometry":{"type":"Point","coordinates":[-71.09886,42.31546]},"properties":{"cartodb_id":447,"id":82944,"street":"3091 WASHINGTON ST","city":"Boston","state":"MA"}},{"type":"Feature","geometry":{"type":"Point","coordinates":[-121.904601,37.280217]},"properties":{"cartodb_id":448,"id":82945,"street":" FAIRLAWN AV","city":"Boston","state":"MA"}},{"type":"Feature","geometry":{"type":"Point","coordinates":[-70.92622,42.216157]},"properties":{"cartodb_id":449,"id":82946,"street":" BROAD ST","city":"Boston","state":"MA"}},{"type":"Feature","geometry":{"type":"Point","coordinates":[-71.08727,42.2872]},"properties":{"cartodb_id":450,"id":82947,"street":"00 BALSAM ST at IRMA ST","city":"Boston","state":"MA"}},{"type":"Feature","geometry":{"type":"Point","coordinates":[-71.062528,42.774553]},"properties":{"cartodb_id":451,"id":82948,"street":"111 BOARDMAN ST","city":"Boston","state":"MA"}},{"type":"Feature","geometry":{"type":"Point","coordinates":[-71.055228,42.450679]},"properties":{"cartodb_id":452,"id":82949,"street":"00 MERIDIAN ST at WHITE ST","city":"Boston","state":"MA"}},{"type":"Feature","geometry":{"type":"Point","coordinates":[-71.055228,42.450679]},"properties":{"cartodb_id":453,"id":82950,"street":"00 MERIDIAN ST at WHITE ST","city":"Boston","state":"MA"}},{"type":"Feature","geometry":{"type":"Point","coordinates":[-71.10154,42.32447]},"properties":{"cartodb_id":454,"id":82951,"street":"50 BICKFORD ST","city":"Boston","state":"MA"}},{"type":"Feature","geometry":{"type":"Point","coordinates":[-122.29566,37.892139]},"properties":{"cartodb_id":455,"id":82952,"street":"380 TALBOT AV","city":"Boston","state":"MA"}},{"type":"Feature","geometry":{"type":"Point","coordinates":[-90.018148,29.928779]},"properties":{"cartodb_id":456,"id":82953,"street":"1 ANSON ST","city":"Boston","state":"MA"}},{"type":"Feature","geometry":{"type":"Point","coordinates":[-71.10315,42.324074]},"properties":{"cartodb_id":457,"id":82954,"street":"301  CENTRE ST","city":"Boston","state":"MA"}},{"type":"Feature","geometry":{"type":"Point","coordinates":[-71.08534,42.29531]},"properties":{"cartodb_id":458,"id":82955,"street":"214 HARVARD ST","city":"Boston","state":"MA"}},{"type":"Feature","geometry":{"type":"Point","coordinates":[-71.107361,42.239958]},"properties":{"cartodb_id":459,"id":82956,"street":" BLUE HILL AV at CALDER ST","city":"Boston","state":"MA"}},{"type":"Feature","geometry":{"type":"Point","coordinates":[-71.00789,42.39232]},"properties":{"cartodb_id":460,"id":82957,"street":"179 FAYWOOD AV","city":"Boston","state":"MA"}},{"type":"Feature","geometry":{"type":"Point","coordinates":[-71.432498,42.986517]},"properties":{"cartodb_id":461,"id":82958,"street":"53 HUNTINGTON AV","city":"Boston","state":"MA"}},{"type":"Feature","geometry":{"type":"Point","coordinates":[-82.465295,27.962937]},"properties":{"cartodb_id":462,"id":82959,"street":"870 MASSACHUSETTS AV","city":"Boston","state":"MA"}},{"type":"Feature","geometry":{"type":"Point","coordinates":[-71.417756,42.052631]},"properties":{"cartodb_id":463,"id":82960,"street":" WASHINGTON ST","city":"Boston","state":"MA"}},{"type":"Feature","geometry":{"type":"Point","coordinates":[-71.10047,42.32421]},"properties":{"cartodb_id":464,"id":82961,"street":"950 PARKER ST","city":"Boston","state":"MA"}},{"type":"Feature","geometry":{"type":"Point","coordinates":[-71.09063,42.31113]},"properties":{"cartodb_id":465,"id":82962,"street":" HUTCHINGS ST at HAROLD ST","city":"Boston","state":"MA"}},{"type":"Feature","geometry":{"type":"Point","coordinates":[-71.0224,42.082619]},"properties":{"cartodb_id":466,"id":82963,"street":"0 L ST at E BROADWAY","city":"Boston","state":"MA"}},{"type":"Feature","geometry":{"type":"Point","coordinates":[-71.457785,42.432523]},"properties":{"cartodb_id":467,"id":82964,"street":"0 ELM HILL at HOMESTEAD ST","city":"Boston","state":"MA"}},{"type":"Feature","geometry":{"type":"Point","coordinates":[-71.14721,42.153221]},"properties":{"cartodb_id":468,"id":82965,"street":"566  WASHINGTON ST","city":"Boston","state":"MA"}},{"type":"Feature","geometry":{"type":"Point","coordinates":[-71.453488,42.429339]},"properties":{"cartodb_id":469,"id":82966,"street":"00 DARTMOUTH ST","city":"Boston","state":"MA"}},{"type":"Feature","geometry":{"type":"Point","coordinates":[-80.430705,37.069352]},"properties":{"cartodb_id":470,"id":82967,"street":" SURFACE RD","city":"Boston","state":"MA"}},{"type":"Feature","geometry":{"type":"Point","coordinates":[-71.405153,42.278635]},"properties":{"cartodb_id":471,"id":82968,"street":" HARVARD ST at MORTON ST","city":"Boston","state":"MA"}},{"type":"Feature","geometry":{"type":"Point","coordinates":[-93.209059,44.075183]},"properties":{"cartodb_id":472,"id":82969,"street":"69 PARIS PL","city":"Boston","state":"MA"}},{"type":"Feature","geometry":{"type":"Point","coordinates":[-71.0829,42.30706]},"properties":{"cartodb_id":473,"id":82970,"street":"14 CASTLEGATE RD","city":"Boston","state":"MA"}},{"type":"Feature","geometry":{"type":"Point","coordinates":[-71.08675,42.31599]},"properties":{"cartodb_id":474,"id":82971,"street":" CRAWFORD ST at HUMBOLDT AV","city":"Boston","state":"MA"}},{"type":"Feature","geometry":{"type":"Point","coordinates":[-71.08455,42.27262]},"properties":{"cartodb_id":475,"id":82972,"street":" RIVER ST at RIDGEVIEW AV","city":"Boston","state":"MA"}},{"type":"Feature","geometry":{"type":"Point","coordinates":[-75.962578,40.309371]},"properties":{"cartodb_id":476,"id":82973,"street":"11 WHEATLAND AV","city":"Boston","state":"MA"}},{"type":"Feature","geometry":{"type":"Point","coordinates":[-71.333608,42.657063]},"properties":{"cartodb_id":477,"id":82974,"street":" CRAWFORD ST at WARREN ST","city":"Boston","state":"MA"}},{"type":"Feature","geometry":{"type":"Point","coordinates":[-70.931026,42.576721]},"properties":{"cartodb_id":478,"id":82975,"street":" BOWDOIN ST at QUINCY ST","city":"Boston","state":"MA"}},{"type":"Feature","geometry":{"type":"Point","coordinates":[-71.09159,42.31222]},"properties":{"cartodb_id":479,"id":82976,"street":"69 HOMESTEAD ST","city":"Boston","state":"MA"}},{"type":"Feature","geometry":{"type":"Point","coordinates":[-70.885369,42.299267]},"properties":{"cartodb_id":480,"id":82977,"street":"11 O ST","city":"Boston","state":"MA"}},{"type":"Feature","geometry":{"type":"Point","coordinates":[-71.06088,42.32788]},"properties":{"cartodb_id":481,"id":82978,"street":"14  ALLSTATE RD","city":"Boston","state":"MA"}},{"type":"Feature","geometry":{"type":"Point","coordinates":[-71.167055,42.715693]},"properties":{"cartodb_id":482,"id":82979,"street":" BENNINGTON ST at BROOKS ST","city":"Boston","state":"MA"}},{"type":"Feature","geometry":{"type":"Point","coordinates":[-70.931026,42.576721]},"properties":{"cartodb_id":483,"id":82980,"street":" BOWDOIN ST at OLNEY ST","city":"Boston","state":"MA"}},{"type":"Feature","geometry":{"type":"Point","coordinates":[-71.049204,42.294204]},"properties":{"cartodb_id":484,"id":82981,"street":"1 WORRELL ST","city":"Boston","state":"MA"}},{"type":"Feature","geometry":{"type":"Point","coordinates":[-71.12619,42.28739]},"properties":{"cartodb_id":485,"id":82982,"street":" MURRAY HILL RD","city":"Boston","state":"MA"}},{"type":"Feature","geometry":{"type":"Point","coordinates":[-71.049204,42.294204]},"properties":{"cartodb_id":486,"id":82983,"street":"1 WORRELL ST","city":"Boston","state":"MA"}},{"type":"Feature","geometry":{"type":"Point","coordinates":[-71.231528,42.030408]},"properties":{"cartodb_id":487,"id":82984,"street":"0 SUMMER ST at CHAUNCY ST","city":"Boston","state":"MA"}},{"type":"Feature","geometry":{"type":"Point","coordinates":[-71.09227,42.28735]},"properties":{"cartodb_id":488,"id":82985,"street":"34 JOHNSTON RD","city":"Boston","state":"MA"}},{"type":"Feature","geometry":{"type":"Point","coordinates":[-71.072694,42.351189]},"properties":{"cartodb_id":489,"id":82986,"street":" TREMONT ST at BOYLSTON ST","city":"Boston","state":"MA"}},{"type":"Feature","geometry":{"type":"Point","coordinates":[-70.458879,41.637692]},"properties":{"cartodb_id":490,"id":82987,"street":" HAMPTON CT at MELNEA CASS BL","city":"Boston","state":"MA"}},{"type":"Feature","geometry":{"type":"Point","coordinates":[-71.457785,42.432523]},"properties":{"cartodb_id":491,"id":82988,"street":"0 D ST at W 7TH ST","city":"Boston","state":"MA"}},{"type":"Feature","geometry":{"type":"Point","coordinates":[-70.885369,42.299267]},"properties":{"cartodb_id":492,"id":82989,"street":"11 O ST","city":"Boston","state":"MA"}},{"type":"Feature","geometry":{"type":"Point","coordinates":[-71.08163,42.29995]},"properties":{"cartodb_id":493,"id":82990,"street":" GLENWAY ST at ERIE ST","city":"Boston","state":"MA"}},{"type":"Feature","geometry":{"type":"Point","coordinates":[-71.119265,42.405125]},"properties":{"cartodb_id":494,"id":82991,"street":" TALBOT AV at WASHINGTON ST","city":"Boston","state":"MA"}},{"type":"Feature","geometry":{"type":"Point","coordinates":[-72.583168,42.105716]},"properties":{"cartodb_id":495,"id":82992,"street":"37 SPRING ST","city":"Boston","state":"MA"}},{"type":"Feature","geometry":{"type":"Point","coordinates":[-122.032874,37.610386]},"properties":{"cartodb_id":496,"id":82993,"street":"480 GENEVA AV","city":"Boston","state":"MA"}},{"type":"Feature","geometry":{"type":"Point","coordinates":[-71.177304,42.243533]},"properties":{"cartodb_id":497,"id":82994,"street":"535 WASHINGTON ST","city":"Boston","state":"MA"}},{"type":"Feature","geometry":{"type":"Point","coordinates":[-71.12977,42.285772]},"properties":{"cartodb_id":498,"id":82995,"street":"29 CORINTH ST","city":"Boston","state":"MA"}},{"type":"Feature","geometry":{"type":"Point","coordinates":[-71.107361,42.239958]},"properties":{"cartodb_id":499,"id":82996,"street":" BLUE HILL AV at WELLINGTON HI","city":"Boston","state":"MA"}},{"type":"Feature","geometry":{"type":"Point","coordinates":[-70.956533,42.199929]},"properties":{"cartodb_id":500,"id":82997,"street":" WINTER ST","city":"Boston","state":"MA"}},{"type":"Feature","geometry":{"type":"Point","coordinates":[-82.465295,27.962937]},"properties":{"cartodb_id":501,"id":82998,"street":"  231 MASSACHUSETTS AV","city":"Boston","state":"MA"}},{"type":"Feature","geometry":{"type":"Point","coordinates":[-71.07327,42.29225]},"properties":{"cartodb_id":502,"id":82999,"street":" ROSEDALE ST at WASHINGTON ST","city":"Boston","state":"MA"}},{"type":"Feature","geometry":{"type":"Point","coordinates":[-71.073773,42.288019]},"properties":{"cartodb_id":503,"id":83000,"street":"25-27 OAKWOOD ST","city":"Boston","state":"MA"}},{"type":"Feature","geometry":{"type":"Point","coordinates":[-71.06571,42.30538]},"properties":{"cartodb_id":504,"id":83001,"street":"118 DRAPER ST","city":"Boston","state":"MA"}},{"type":"Feature","geometry":{"type":"Point","coordinates":[-71.07037,42.30043]},"properties":{"cartodb_id":505,"id":83002,"street":"44 WESTVILLE ST","city":"Boston","state":"MA"}},{"type":"Feature","geometry":{"type":"Point","coordinates":[-71.004315,42.084882]},"properties":{"cartodb_id":506,"id":83003,"street":"00 MYSTIC ST","city":"Boston","state":"MA"}},{"type":"Feature","geometry":{"type":"Point","coordinates":[-71.09944,42.32486]},"properties":{"cartodb_id":507,"id":83004,"street":"24 HEATH ST","city":"Boston","state":"MA"}},{"type":"Feature","geometry":{"type":"Point","coordinates":[-71.0224,42.082619]},"properties":{"cartodb_id":508,"id":83005,"street":"0 L ST at E BROADWAY","city":"Boston","state":"MA"}},{"type":"Feature","geometry":{"type":"Point","coordinates":[-73.284598,42.366692]},"properties":{"cartodb_id":509,"id":83006,"street":" WASHINGTON ST at ASPINWALL RD","city":"Boston","state":"MA"}},{"type":"Feature","geometry":{"type":"Point","coordinates":[-71.03921,42.3729]},"properties":{"cartodb_id":510,"id":83007,"street":"108 MERIDIAN ST","city":"Boston","state":"MA"}},{"type":"Feature","geometry":{"type":"Point","coordinates":[-71.08972,42.31131]},"properties":{"cartodb_id":511,"id":83008,"street":"109 HOMESTEAD ST","city":"Boston","state":"MA"}},{"type":"Feature","geometry":{"type":"Point","coordinates":[-71.06888,42.35131]},"properties":{"cartodb_id":512,"id":83009,"street":" PARK PLAZA","city":"Boston","state":"MA"}},{"type":"Feature","geometry":{"type":"Point","coordinates":[-71.148867,42.485269]},"properties":{"cartodb_id":513,"id":83010,"street":" ST JAMES ST at WASHINGTON ST","city":"Boston","state":"MA"}},{"type":"Feature","geometry":{"type":"Point","coordinates":[-71.453488,42.429339]},"properties":{"cartodb_id":514,"id":83011,"street":"00 DARTMOUTH ST","city":"Boston","state":"MA"}},{"type":"Feature","geometry":{"type":"Point","coordinates":[-71.06238,42.3582]},"properties":{"cartodb_id":515,"id":83012,"street":"0 BEACON ST at CHARLES ST","city":"Boston","state":"MA"}},{"type":"Feature","geometry":{"type":"Point","coordinates":[-71.0758,42.34097]},"properties":{"cartodb_id":516,"id":83013,"street":"85 W NEWTON ST","city":"Boston","state":"MA"}},{"type":"Feature","geometry":{"type":"Point","coordinates":[-71.07127,42.32161]},"properties":{"cartodb_id":517,"id":83014,"street":" E COTTAGE ST at HUMPHREYS ST","city":"Boston","state":"MA"}},{"type":"Feature","geometry":{"type":"Point","coordinates":[-71.072694,42.351189]},"properties":{"cartodb_id":518,"id":83015,"street":"00 BOYLSTON ST","city":"Boston","state":"MA"}},{"type":"Feature","geometry":{"type":"Point","coordinates":[-71.094037,42.269957]},"properties":{"cartodb_id":519,"id":83016,"street":"1575 BLUE HILL AV","city":"Boston","state":"MA"}},{"type":"Feature","geometry":{"type":"Point","coordinates":[-81.110909,32.018888]},"properties":{"cartodb_id":520,"id":83017,"street":"100 STUART ST","city":"Boston","state":"MA"}},